BusStationName,Latitude,Longitude
"Jayanagara 9th Block,JAYANAGARA 9TH BLOCK,BESIDE HOTEL SRI SAI",12.919757,77.592359
"Jayanagara T Block,JAYANAGARA 4TH T BLOCK,BESIDE HDFC BANK",12.922689,77.593385
"Jayanagara 18th Main,JAYANAGARA 4TH T BLOCK,OPPOSITE OF LAKSHMI AYURVEDIC CENTER",12.923186,77.588772
"Church,JAYANAGARA 4TH T BLOCK,BESIDE POORNIMA CONVENTION",12.92796,77.587604
"Jayanagara 4th Block,TTMC",12.928483,77.58421
"Jayanagara 3rd Block,JAYANAGARA 3RD BLOCK,OPPOSITE OF UTL TECHNOLOGIS",12.931778,77.583906
"Madavan Park,JAYANAGARA 3RD BLOCK,OPPOSITE OF ORIENTAL INSUARENCE",12.936107,77.583924
"Southend Circle,BASAVANAGUDI,BESIDE GANDHARVA FAMILY BAR",12.936664,77.576646
"Nagasandra Circle,BASAVANAGUDI,BESIDE PROSPER PARK APPARTMENT",12.936721,77.57217
"Netakallappa Circle,BASAVANAGUDI,OPPOSITE OF GURU RAGHAVENDRA BANK",12.939562,77.572152
"Basavanagudi Police Station,BASAVANAGUDI,BESIDE ACHIEVE SCHOOL OF EDUCATION",12.94189,77.57358
"Gandhi Bazaar,BASAVANAGUDI,BESIDE ASHOKA PLAZA",12.945742,77.570701
"Ramakrishna Ashrama,GAVIPURAM EXTENTION,OPPOSITE OF STATE BANK OF INDIA",12.949147,77.567561
"Bangalore High School,KEMPE GOWDA NAGARA,IN FRONT OF MORE MEGHA STORE",12.951895,77.567463
"Chamarajapet,CHAMARAJA PETE,BESIDE VENKUS & CO. PETROL BUNK",12.957195,77.568295
Makkalakoota,12.958509,77.574026
Krishnarajendra Market,12.961612,77.575279
Veterinary Hospital,12.96366,77.56843
"Goodshed Road Gate,COTTONPET,BESIDE BALAGANGADHARANATHA SWAMYJI FREE HOSTEL SCHOOL",12.968119,77.568007
"Majestic,Opposite to City Railway Station",12.97736,77.57074
"Ananda Rao Circle,IN FRONT OF DIRECTOR OF MEDICAL EDUCATION",12.981745,77.574481
"Central,SHESHADRI PURAM,OPPOSITE TO HOTEL GREEN ARCHID",12.989975,77.572099
"Malleshwaram Circle,MALLESHWARAM,BESIDE R.R.GOLD PALACE",12.99789,77.57131
"Malleshwaram 8th Cross,MALLESHWARAM,BESIDE FLOWER MARKET",12.99966,77.57128
"Malleshwaram 15th Cross,MALLESHWARAM,BESIDE SAI MANDIR",13.005031,77.571155
"Malleshwaram 18th Cross,MALLESHWARAM,BESIDE KARNATAKA EXAMINATION AUTHORITY",13.009082,77.571048
Tata Institute,13.015657,77.562897
Yeshawanthapura TTMC,13.017421,77.557078
"Govardhan Talkies,YESHAWANTHPURA,BESIDE BSNL OFFICE",13.01856,77.5532
Yeshwanathapura new railway station,13.02311,77.55029
"JPNagara 6th Phase,JP NAGARA 6TH PHASE,OPPOSITE OF THE BIG MARKET",12.906492,77.577613
"JP Nagara 15th Cross,JP NAGARA 2ND PHASE,BESIDE CELL CITY",12.907138,77.585628
"RVDental College,JP NAGARA 1ST PHASE,BESIDE R.V.COLLEGE",12.911152,77.585678
"Marenahalli,JP NAGARA 1ST PHASE,BESIDE 3M CAR CARE",12.915337,77.585693
"Jayanagara 5th Block,JAYANAGARA 5TH BLOCK,BESIDE AIR WAAVE",12.917441,77.583544
"Telephone Exchange,JAYANAGARA 4TH BLOCK,BESIDE BSNL OFFICE",12.92377,77.583774
"BTM Layout,BTM Layout 2nd Stage,Kuvempunagara Bus Stand",12.916211,77.615991
"Udupi Garden 16th Main,BTM Layout,Opp Axis Bank",12.916535,77.608779
"BTM water Tank,BTM LAYOUT,OPPOSITE OF CORPORATION BANK",12.91645,77.606775
"MICO Layout,BTM LAYOUT,IN FRONT OF METRIC STREAM",12.91647,77.604345
"Jayadeva Hospital,BTM MICO LAYOUT,OPPOSITE OF JAYADEVA HOSPITAL",12.916562,77.599568
"East End,Adjacent to Shekhar Hospital",12.917516,77.595058
"Jayanagara Pump House,JAYANAGARA 9TH BLOCK,BESIDE SAINT MARY ENTERPRISES",12.921796,77.596911
"Carmel Convent Jayanagara,JAYANAGARA 4TH T BLOCK,BESIDE THINK SPAN TECHNOLOGIES",12.926636,77.59704
"Jayanagara General Hospital,JAYANAGARA 4TH T BLOCK,RAJEEV GANDHI UNIVERSITY OF HEALTH",12.926937,77.592414
"Church,JAYANAGARA 4TH T BLOCK,BESIDE THASHI'S HERBAL",12.926908,77.589736
City Civil Court,12.973503,77.582949
"KR Circle,BESIDE DISTRICT TREASURY OFFICE",12.973751,77.586767
"St Marthas Hospital,BESIDE POLICE HEAD QUARTERS",12.969805,77.587251
Corporation,12.964594,77.58816
"Poornima Talkies,K.S.GARDEN,BESIDE KAVERI ENTERPRISES",12.960876,77.588285
"Shanthi Nagara Bus Station,SHANTHI NAGAR,OPPOSITE TO SHANTHINAGAR TTMC",12.95446,77.59148
KH Road,12.958369,77.592984
Richmond Circle,12.967473,77.599439
StJosephs College,12.969873,77.602904
Mayohall,12.972041,77.610652
MG Road ,12.976407,77.60853
"Shivajinagar Bus Station,SHIVAJI NAGARA,BESIDE BMTC BUS STAND",12.983038,77.603235
Indian Express,12.983891,77.597636
Vidhana Soudha,12.978919,77.592535
"KR Circle,Post Office Road",12.97543,77.58645
"Vasanthapura,VASANTHAPURA,IN FRONT OF VASANTHA VALLABHARAYA SWAMY TEMPLE",12.895425,77.552246
"Yadalam Nagara,YADALAM NAGARA,IN FRONT OF SRI MANIKANTA SOUND SYSTEM",12.896166,77.548518
"Subramanyapura Co-operative Society,SUBRAMANYA PURA,BESIDE K.E.B.",12.897604,77.54622
"Subramanyapura Police station,SUBRAMANYA PURA,IN FRONT OF YADALAM ADI LAKSHMAMMA SUBBAIAH SHETTY MIDDLE SCHOOL",12.899071,77.543722
"Uttarahalli,UTHARAHALLI,IN FRONT OF PUBLIC LIBRARY UTHARAHALLI",12.90495,77.54333
"Uttarahalli KR Hospital,UTHARAHALLI,IN FRONT OF I.C.I.C.I.BANK",12.906966,77.545917
"Chikkalsandra Canara Bank Colony,CHIKKALASANDRA,BESIDE STATE BANK OF MYSORE",12.909213,77.549253
"Chikkalsandra Aralimara,CHIKKALASANDRA,IN FRONT OF C.S.HOSPITAL",12.911746,77.552568
"Gowdana palya,TELECOM NAGARA,BESIDE SRI BALAJI C.D.CENTRE",12.911532,77.555554
"Prarthana School,PADMANABHA NAGARA",12.912012,77.55855
"Kadirenahalli Village,KADIRENAHALLI,IN FRONT OF BELURU IYENGAR BAKERY",12.915687,77.561673
"kadirenahalli cross,BANASHANKRI 2ND STAGE TEACHERS COLONY,BESIDE S.A.F00T WEAR",12.913889,77.566868
BANASHANKARI TTMC,12.917563,77.573447
"Sangam Circle,JAYANAGARA 8TH BLOCK,BESIDE INDIAN TYRE CENTER",12.917625,77.577378
Jayanagara 40th Cross,12.91998,77.58013
Central Silk Board,12.91747,77.62423
"Madivala Mosque,KORAMANGALA 2ND BLOCK,IN FROUNT OF UJWAL FAB INDIA",12.925066,77.61898
"Koramangala Water Tank,KORAMANGALA RING ROAD,OPPOSITE OF KARNATAKA BANK",12.929294,77.621433
"BDA Complex koramangala,KORAMANGALA RING ROAD,OPPOSITE OF BDA COMPLEX",12.930898,77.622127
"Canara Bank Koramangala,KORAMANGALA RING ROAD,BESIDE SPICE HOT SHOP",12.935056,77.624019
"Jn of 80 and 100 Feet Road,KORAMANGALA RING ROAD,OPPOSITE OF OASIS CENTER & LIFE STYLE",12.938122,77.628023
"Sreenivagilu,KORAMANGALA RING ROAD,BESIDE ASC NORTH COMPLEX",12.938606,77.633225
Military Bridge,12.94598,77.63996
"Jn of New Bridge,DOMLURU,BESIDE GINGER COFFEE DAY",12.952326,77.640056
"Domlur,DOMLURU,OPPOSITE OF HDFC BANK",12.956942,77.641306
Domlur Bridge,12.960556,77.641415
"Doopanahalli,INDIRA NAGARA,BESIDE RELIANCE DIGITAL",12.963751,77.64148
"New Horizon School,HAL 2ND STAGE,BESIDE NAC HOME",12.9665,77.641335
"HAL 12th Main,HAL 2ND STAGE,BESIDE AXIS BANK",12.969441,77.641214
"HAL 6th Main,HAL 2ND STAGE,BESIDE BANK OF BARODA",12.973705,77.640912
"Indiranagar Police Station,INDIRA NAGARA,BESIDE POLICE STATION & K.F.C.",12.978189,77.64028
"Indiranagar Double Road,INDIRA NAGARA,BESIDE MANYVARA, 13TH CROSS",12.97809,77.635956
"Lakshmipura Ulsoor,INDIRA NAGARA,BESIDE BBMP BURIAL GROUND",12.978241,77.631986
Halasur,12.978018,77.628324
Trinity Circle,12.972838,77.621672
"Manipal Centre,M.G.ROAD,BESIDE MILITARY GATE",12.975474,77.61345
"maniksha pardeground,M.G.ROAD,BESIDE PARADE GROUND",12.977275,77.60787
"Mysore Bank,VASANTHA NAGARA,BESIDE ALL INDIA COUNCIL FOR TECHNICAL",12.974661,77.581996
"Maharani College,BESIDE SJP COLLEGE",12.977046,77.585916
Kempegowda Bus Station,12.978062,77.572342
"Peenya 2nd stage,PEENYA 2ND STAGE,IN FRONT OF M.P.P.TEHNOLOGIES PVT LTD",13.010767,77.506725
"Rajagopalanagar Rajni Farms,PEENYA INDUSTRIAL AREA 2ND STAGE,IN FRONT OF MANJUNATHA REFRESHMENT",13.013971,77.508923
"Peenya 14th Cross,PEENYA INDUSTRIAL AREA 2ND STAGE,OPPOSITE OF SISTEMS MANUFACTURING PVT LTD",13.017041,77.505846
"Brundavana Peenya 2nd Stage,PEENYA INDUSTRIAL AREA 2ND STAGE,IN FRONT OF NEW TIMBER INDUSTRY",13.020267,77.507995
"NTTF,N.T.T.F.CROSS,IN FRONT OF NEW TIMBER INDUSTRY",13.024945,77.510955
"Rolling Mill,PEENYA INDUSTRIAL AREA,BESIDE ARVIND MOTORS",13.026582,77.51472
"TVS Cross ,PEENYA INDUSTRIAL AREA,IN FRONT OF MALLIPORE LIMITED",13.028595,77.519569
"System Jalahalli Cross,PEENYA INDUSTRIAL AREA,IN FRONT OF SISTEMS MANUFACTURING PVT LTD",13.035002,77.517911
Jalahalli Cross,13.039625,77.518229
T Dasarahalli,13.042991,77.512418
"Tumkur Road 8th Mile,8TH MILE,BESIDE DURGA SAW MILL",13.046051,77.507492
"Widia School Bagalagunte,T.DASARAHALLI,BESIDE ESHWARI MEDICALS",13.0511,77.507698
"Bagalagunte,BAGALAGUNTE,BESIDE MATAJI STEEL CENTER",13.056252,77.507304
"Bone Mill,BONE MILL,BESIDE PAVAN MEDICALS",13.063843,77.505073
"Sapthagiri College Chikka Banawara,KIRLOSKAR LAYOUT,BESIDE NEW UDUPI UPAHARA",13.066869,77.503241
"Janapriya Apartments,JANAPRIYA APARTMENTS,BESIDE OPEN AREA",13.073459,77.503084
"Chikkabanawara Railway Gate,CHIKKA BANAVARA,BESIDE GREEN COMFORT CAMPUS HOME",13.075507,77.504612
"Chikkabanawara ,CHIKKA BANAVARA,BESIDE SUMA TRADERS",13.081903,77.500216
Borewell,12.955218,77.687782
Maratahalli,12.956436,77.695099
Maratahalli Bridge,12.95693,77.70178
Spice Garden,12.956478,77.709056
"Kundalahalli Gate,KUNDALAHALLI,OPPOSITE OF HYPER CITY",12.958235,77.715564
"BEML Gate,KUNDALAHALLI,OPPOSITE OF HYPER CITY",12.961104,77.716458
"AECS Layout,KUNDALAHALLI,OPPOSITE OF BROOK FIELD",12.965156,77.71825
Graphite India,12.978184,77.71143
"SAP ITPL,WHITEFIELD,IN FRONT OF SAP",12.977719,77.715024
"Vydehi Hospital,WHITEFIELD,BESIDE TTMC BUS STAND",12.976657,77.726784
"Sai Baba Hospital,WHITEFIELD,OPPOSITE OF SRI SATHYA SAI HOSPITAL",12.983661,77.728461
"Pattandur Agrahara Gate,IN FRONT OF APPOLO PHARMACY",12.987941,77.73374
"ITPL,OPPOSITE OF I.T.P.L. MAIN GATE",12.987639,77.737373
"B P L,OPPOSITE OF CINEMA HALL",12.985353,77.747989
Hope Farm,12.982607,77.752211
White Field,12.969345,77.749992
Varthuru Kodi,12.956958,77.745439
Ramagondanahalli Varthuru,12.956913,77.739784
Siddapura,12.956043,77.730682
Thubarahalli,12.955713,77.720503
Kundalahalli Gate,12.955826,77.713675
"JP Nagara 1st Phase,SHAKAMBARI NAGARA,BESIDE APOLLO PHARMACY",12.91141,77.574138
"Indira Gandhi Circle,SHAKAMBARI NAGARA,BESIDE S.B.M.LAYOUT",12.910885,77.578939
"Eliyas Nagar,ILYASA NAGARA,BESIDE M.S.MADEENA STORE",12.905611,77.569044
"Jn Of Ring Road,ILYAS NAGARA,BESIDE R.R.DIAGNOSTIC CENTER",12.907534,77.571314
Banashankari Bus Station,12.9182,77.5733
"Kadirenahalli Cross,BANASHANKRI 2ND STAGE KAVERI NAGARA,BESIDE KAVERI GLASS & PLYWOODS",12.91381,77.567431
"Dayananda Sagar College,KUMARASWAMY AYOUT 2ND STAGE,IN FRONT OF STATE BANK OF INDIA",12.909422,77.565394
"Kumaraswamy Layout Police Station,KUMARA SWAMY LAYOUT,IN FRONT OF KUMARA SWAMY LAYOUT POLICE STATION",12.905165,77.562717
Kumaraswamy Layout ,12.902954,77.561565
Canara Bank,12.90086,77.55987
"ISRO Layout,ISRO LAYOUT,IN FRONT OF BHARTHIYA STATE BANK",12.898875,77.55831
"Vasanthapura,VASANTHAPURA,BESIDE OPEN AREA",12.896358,77.55211
Brigade Road,12.971528,77.606726
St. Patrics Church,12.965808,77.60687
Johnson Market,12.963474,77.606824
Anepalya,12.952496,77.604873
MICO Gate,12.944551,77.602837
Bangalore Dairy Circle,12.935572,77.601495
"Ashrama,OPPOSITE OF BHARATH PETROL BUNK",12.925765,77.600483
Gurappana palya,12.919492,77.600164
MICO Checkpost,12.913944,77.600124
JP Nagara 3rd Phase,12.908302,77.600391
Bilekalli,12.900772,77.601151
IIM Appolo Hospital,12.896518,77.600083
Arakere Gate Byrapura,12.890204,77.598103
BPL,12.887442,77.597034
Hulimavu Gate,12.880703,77.595938
Meenakshi Temple,12.874185,77.594659
Loyala School,12.871193,77.593645
Kalena Agrahara,12.866284,77.591937
Gottigere High School,12.861951,77.590474
Gottigere,12.855166,77.588814
TJohn College Cross,12.850577,77.588434
Basavanapura Gate,12.846425,77.588326
Koli Farm Gate Bannerghatta Road,12.841468,77.588613
Tulip Resort Cross,12.83543,77.58912
Kalkere,12.832604,77.589092
AMC College Bannerghatta Road,12.830531,77.588161
Jalli Machine Bannerghatta Road,12.82565,77.586322
Vijaya Bank Banneragatta Circle,12.815648,77.583173
Bannerghatta Circle,12.813644,77.581013
"Sampigehalli,BHANNERGAHTTA POST",12.805723,77.579002
Bannerghatta National Park,12.80065,77.577816
"Nagarabhavi BDA Complex,NAGARABHAVI 2ND STAGE,BESIDE BDA COMPLEX NAGARABHAVI",12.979107,77.510689
"Papareddy Palya,PAPAREDDY PALYA,BESIDE SHARADA TIMBERS",12.972425,77.5079
"Deepa Complex,PAPAREDDY PALYA,BESIDE DEEPA COMPLEX",12.966772,77.505035
"Ambedkar College,80FEET OUTER RING ROAD,IN FRONT OF FISH PRODUCT SALES COUNTER",12.960259,77.504973
"NGEF Layout,NGEF LAYOUT,IN FRONT OF TEJASWINI PHARMA",12.960946,77.509724
"Nrupatunga Nagar,N.G.E.F.LAYOUT,IN FRONT OF TWINKLERS VIDYANIKETHAN",12.958073,77.509915
"Nagarabhavi Village,NAGARABHAVI VILLAGE,BESIDE DANVANTHARI HOMEO CLINIC",12.956932,77.515831
"NAGARBHAVI CIRCLE,NAGARABHAVI CIRCLE,OPPOSITE OF DURGA PARAMESHWARI HOTEL",12.959698,77.519775
"Jyothi Nagara,JYOTHI NAGARA,IN FRONT OF BASAVESHWARA TRADERS",12.959377,77.521651
"Chandra Layout,CHANDRA LAYOUT,OPPOSITE OF CHANDRAGIRI PALACE",12.958301,77.526499
"Chandra Layout Ganesh temple,CHANDRA LAYOUT,BESIDE POST OFFICE",12.958366,77.528803
"Chandra Public School Chandra Layout,CHANDRA LAYOUT,BESIDE SPIRIT JUNCTION",12.960409,77.529523
"Income Tax Layout,VIJAYANAGARA,BESIDE A.M.HOSPITAL",12.960007,77.53148
"Attiguppe,RPC LAYOUT,OPPOSITE OF SYNDICATE BANK",12.957962,77.534049
"Deepanjalinagara Depot-16,DEEPANJALI NAGARA,OPPOSITE OF DEPOT 16",12.951521,77.537268
Bapuji Nagara,12.953576,77.542155
New Guddadahalli,12.955766,77.545647
Azad Nagar,12.957244,77.551338
"Sirsi Circle,SIRSI CIRCLE",12.960461,77.556935
Vinayaka Talkies KR Market,12.96328,77.56717
"Krishnarajendra Market,KR MARKET,OPPOSITE TO CHANDRA BHAVAN HOTEL",12.964049,77.577499
Town Hall,12.963932,77.584257
"Kalyananagara Bus Stand,KALYAN NAGAR,OPPOSITE OF PANASONIC/GIRIAS SHOW ROOM",13.02655,77.638339
"Kalyana Nagara,KALYANA NAGARA,OPPOSITE OF INDO ASIAN ACADEMY DEGREE COLLEGE",13.026366,77.636401
Hennur Cross,13.031612,77.636007
Hennur Depot,13.025633,77.631705
"Kacharakanahalli,KACHARAKANAHALLI,OPPOSITE OF CHENNAKESHAVA TEMPLE",13.021393,77.629913
"Jyothi School Lingarajapura,KACHARAKANAHALLI,IN FRONT OF BETHEL CHURCH",13.015257,77.628912
"Lingarajapuram,KARIYANA PALYA,IN FRONT OF SUCHI RUCHI VEG",13.012226,77.625824
Lingarajapura Bridge,13.00847,77.62294
"CHARLES SCHOOL,SAGAYAPURAM,BESIDE ST CHARLES CONVENT",13.006173,77.62103
"Sindhi Colony,FRAZER TOWN,IN FRONT OF BBMP CHOULTRY",12.995524,77.616796
"Thoms Cafe,FRAZER TOWN,OPPOSITE OF CAR TRENDZ",12.991074,77.614267
"Lavanya Talkies,BESIDE POPULAR AUTOMOBILES",12.98591,77.615471
"Hasanath College,HALASURU,BESIDE HARANATHA COLLEGE",12.979199,77.615063
B Station,12.973704,77.613641
"Jagajeevanram Nagara,J.J.NAGARA,BESIDE B.B.M.P. P.U.C. COLLEGE",12.964665,77.554901
"Maramma Temple,K.H.RANGANATHA COLONY,OPPOSITE OF MARIYAMMA TEMPLE",12.963146,77.559011
Sirsi Circle,12.96162,77.56075
"Chikkallasandra Bus Stand,IN FRONT OF U.K.RESIDENCY APARTMENTS",12.915064,77.55223
"Mahesh Medicals,CHIKKALASANDRA,IN FRONT OF VINAYAKA PHOTO STUDIO",12.914057,77.549997
HSR BDA COMPLEX,12.912776,77.638009
14th Main HSR Layout,12.917437,77.638223
Jakkasandra,12.925121,77.636917
Koramangala,12.924828,77.634596
"John Fowler,KORAMANAGALA,OPPOSITE OF TOSHIBHA COMPANY, IN FRONT OF KSRP QUARTERS",12.924106,77.630801
"Koramangala Water Tank,KORAMANGALA,OPPOSITE OF AGARWAL EYE HOSPITAL & STATE BANK OF INDIA",12.92712,77.621589
"Katriguppe ,KATHRIGUPPE,IN FRONT OF ANNA KUTEERA HOTEL",12.926089,77.550299
"Vivekanada Nagara,VIVEKANANDA NAGARA,IN FRONT OF M.M.BAR & RESTAURANT",12.93051,77.55352
"Vidya peeta Circle,VINAYAKANAGARA,IN FRONT OF KARNATAKA RAKSHANA VEDIKE OFFICE",12.936278,77.559618
"Srinivasa Nagara,SRINIVASANAGARA,IN FRONT OF SHANKARA TIMBERS",12.937614,77.557778
"Apex Bank,BANASHANKARI 1ST STAGE HANUMANTHA NAGARA,BESIDE ANJU FURNITURES",12.941713,77.555689
"Nagendra Block,BANASHANKARI 3RD STAGE NAGENDRA BLOCK,BESIDE SWASTIK HARD WARE",12.94184,77.55324
"Avalahalli BDA Park,AVALAHALLI BDA,OPPOSITE OF BDA PARK",12.943099,77.542652
"Deepanjali nagara BMT-16,DEEPANJALI NAGARA,OPPOSITE OF DEPOT 16",12.951435,77.537115
"Attiguppe,RPC LAYOUT,BESIDE SYNDICATE BANK",12.957782,77.53383
"Vijayanagara TTMC,TTMC",12.964843,77.534702
"Maruthi mandira,VIJAYANAGARA,BESIDE MATHA AIR TRAVELS",12.967804,77.536114
"Vijayanagara,VIJAYANAGARA,IN FRONT OF INDRAPRASTHA HOTEL",12.971953,77.537622
"Manu Vana Vijayanagara,VIJAYANAGARA,BESIDE STATE BANK INDIA",12.974431,77.54451
Magadi Road Dasarahalli,12.978892,77.540658
KHB Colony,12.981106,77.535581
Kamakshipalya,12.984323,77.528033
"Summanahalli Magadi Road,SUMANAHALLI,UNDER THE FLYOVER",12.987259,77.519228
Kottige Palya Magadi Road,12.987814,77.515347
"Aralimara Sunkadakatte,SUNKADA KATTE,OPPOSITE OF STATE BANK OF MYSORE",12.992052,77.504588
"Vigneshwara Nagara,SUNKADA KATTE,IN FRONT OF SALLAPURADAMMA TEMPLE",12.994356,77.504171
"Neelagiri Thopu,SUNKADA KATTE,IN FRONT OF S.S.K.CHOULTRY",12.996029,77.502476
"Hegganahalli Cross,HEGGANA HALLI,OPPOSITE OF AMBIKA BAKERY & SWEETS",12.999754,77.503956
"Hegganahalli,HEGGANA HALLI,OPPOSITE OF HODAY BADRIYA",13.005405,77.505071
"Dairy Hegganahalli,HEGGANA HALLI,IN FRONT OF I.I.F.L.GOLD LOAN",13.007932,77.505535
Uttarahalli,12.908743,77.536099
"Channasandra,CHANASANDRA,IN FRONT OF ANNAPOORNA RETAIL PVT LTD",12.903172,77.521166
"BEML Layout 5th Stage,B.E.M.L. GATE LAYOUT,BESIDE PAVAN ELECTRICALS & HARDWARE SHOP",12.909728,77.520944
"Double Road,B.E.M.L. DOUBLE ROAD CIRCLE,OPPOSITE OF SMART SUPER MARKET",12.914756,77.520609
"BEML Complex,B.E.M.L. LAYOUT 3RD STAGE,OPPOSITE OF RAMANJANEYA TEMPLE &amp; B.E.M.L. COMPLEX",12.919581,77.520303
"BEML Gate,B.E.M.L. LAYOUT 3RD STAGE,IN FRONT OF RAJESHWARI NAGARA, RESIDENTS WELFARE ASSOCIATION",12.922734,77.518326
"Ideal Homes,RAJA RAJESHWARI NAGARA,IN FRONT OF NIMISHAMBHA DEVI TEMPLE",12.924834,77.517853
"Raja Rajeshwari Temple,RAJESHWARI NAGARA,BESIDE RAJA RAJESHWARI TEMPLE",12.927169,77.511098
"RRSchool,IN FRONT OF RAJESHWARI SCHOOL",12.928396,77.514171
"PETROL BUNK,RAJA RAJESHWARI NAGARA,OPPOSITE OF INDIAN OIL PETROL BUNK",12.932986,77.516183
Rajarajeshwarinagara Gate,12.936191,77.516395
"Bangalore Univercity Gate Mysore Road,MYSORE ROAD,IN FRONT OF UNIVERSITY GATE, RAILWAY BRIDGE",12.935953,77.512656
"Ladies Hostel University Campus,BANGALORE UNIVERSITY,IN FRONT OF CIVIL ENGINEERING DEPARTMENT UNIVERSITY",12.942136,77.505644
"Library University,BANGALORE UNIVERSITY,IN FRONT OF MUNESHWARA SWAMY TEMPLE",12.943827,77.504499
"Bangalore University Administrative Block,BANGALORE UNIVERSITY,NEAR HEAD OFFICE BANGALORE UNIVERSITY",12.949064,77.501061
University Quarters,12.95176,77.50015
Koli Farm University Quatres,12.95199,77.49796
Press Layout Ullal Road,12.95035,77.49131
Amma ashrama cross,12.94946,77.48908
Vidyanikethan Public School,12.95061,77.48675
Manganahalli Cross,12.95135,77.48446
Hullalu,12.95551,77.48018
Hullala Bar Stop,12.961506,77.478696
Hullala Upanagara,12.96243,77.47524
"Kengeri Satelite Town,KENGERI UPANAGARA,IN FRONT OF KARUNA BAKERES & SWEETS",12.92251,77.486142
Railway Station Kengeri,12.922373,77.48444
Jn of Kommaghatta Road,12.916115,77.482184
Ganesha Temple,12.912295,77.480735
Kengeri Police Station,12.910483,77.48319
Kengeri TTMC,12.913909,77.486301
Mylasandra Gate,12.918566,77.491016
RV College,12.925494,77.499366
Jayaram Das Factory,12.930947,77.506093
Bangalore University Gate Mysore Road,12.935799,77.513344
Shanthinagar TTMC,12.95407,77.592986
Jambu Savari Dinne,12.865782,77.581003
"Surabhi,J.P.NAGARA 8TH PHASE, SURABHI NAGARA,IN FRONT OF VINAYAKA TIMBERS",12.867737,77.581841
"B K Circle,J.P.NAGARA 8TH PHASE,IN FRONT OF UNIVERSAL GRANITES",12.870691,77.583144
"Kothnuru Kanakapura Road,J.P.NAGARA 8TH PHASE,IN FRONT OF GANESHA TEMPLE",12.877622,77.58392
"Navodaya Nagara,NAVODAYA NAGARA,OPPOSITE OF VISHWAS SHOPPING CENTRE",12.881273,77.583725
"Gourav Nagara,GOWRAVA NAGARA,IN FRONT OF KANISHKA DIAGNOSTIC",12.884636,77.582574
"RBI Layout,R.B.I.LAYOUT,IN FRONT OF SOMESHWARA SABHA BHAVANA",12.888037,77.581848
"Brigade Millanium,R.B.I.LAYOUT,IN FRONT OF APOLLO PHARMACY",12.892089,77.581819
"Puttenahalli,PUTTENAHALLI,IN FRONT OF NANJUNDESHWARA TEMPLE",12.898119,77.582444
CV Raman Nagara,12.985659,77.664126
"CGHS Nagavar Palya,C.V.RAMAN NAGARA,OPPOSITE OF PLAY GROUND",12.987177,77.662351
"DRDO Qts,C.V.RAMAN NAGARA,IN FRONT OF MES SERVICE CENTER NO-1",12.984535,77.661331
"LRDE,C.V.RAMAN NAGARA,IN FRONT OF ELECTRONIC & RADAR DEVELOPMENT ESTABLISMENT",12.980701,77.656734
"GTRE,HAL 3RD STAGE,BESIDE BEML LIMITED BANGALORE COMPLEX",12.97587,77.65566
"BEML Gate,BEML,OPPOSITE OF BEML LIMITED",12.971157,77.659113
"Jn of Suranjandas Road,HAL 3RD STAGE,IN FRONT OF STATE BANK OF INDIA",12.966718,77.661282
Jeevan Bheema Nagar,12.96721,77.65797
"Jeevanbhimanagara Petrol Bunk,HAL 3RD STAGE,BESIDE OF INDIAN OIL PETROL BANK",12.96757,77.654695
"Kodihalli,HAL 3RD STAGE WARD-58,OPPOSITE OF ICICI BANK",12.968474,77.649942
"Tippasandra,HAL 2ND STAGE,OPPOSITE OF COLUMBIA ASIA",12.973656,77.646826
"Chinmaya Mission Hospital,INDIRANAGARA,BESIDE CHINMAYA HOSPITAL",12.978449,77.646059
"Thambuchetty Palya,T.C.PALYA,OPPOSITE OF ANTHONY COMPOSITE P.U COLLEGE",13.021441,77.700119
"Anandapura,ANANDAPURA,IN FRONT OF NATIONAL BAKERY & SWEETS",13.024102,77.692949
Bhakthi Yoga Ashrama,13.021965,77.687973
"Akshya Nagara,AKSHAYA NAGARA,IN FRONT OF IDEAL MART SUPER MARKET",13.020625,77.683518
"Koudenahalli Cross,RAMAMURTHI NAGARA,IN FRONT OF BHAGYALAKSHMI GLASS & PLY WOODS",13.021172,77.679066
"Muneshwara Layout,RAMAMURTHI NAGARA,IN FRONT OF J.M.J.CYBER CENTER",13.018154,77.671852
"B Channasandra Bridge,RAMAMURTHI NAGARA,BESIDE RAILWAY BRIDGE",13.013023,77.66275
"Kasthurinagara,KASTURI NAGARA,IN FRONT OF SPENCERS",13.002616,77.661218
"Bennigana Halli,KASTURI NAGARA,IN FRONT OF AUXILIARY PANEL CHANNASANDRA BYPASS",12.997113,77.662865
"NGEF Ground,SADANANDA NAGARA,OPPOSITE OF N.G.E.F.FACTORY",12.991815,77.651628
Isolation Hospital,12.984884,77.64322
"Binnamangala,INDIRANAGARA,OPPOSITE OF LEO MOTORS, MARUTI SUZUKI",12.983637,77.640682
"Indiranagar Police Station,INDIRA NAGARA,BESIDE WILLS LIFE STYLE & SYNDICATE BANK",12.976971,77.641068
"Indiranagar 6th main,INDIRA NAGARA,BESIDE E.ZONE",12.974064,77.641166
"New Horizon School,INDIRA NAGARA,BESIDE METHODIST CHURCH",12.968392,77.641483
"Doopanahalli,DOMLURU,BESIDE 17TH MAIN BAJAJ MOTORS",12.963252,77.641748
"New Bridge,DOMLURU,BESIDE EMBESSY GROUP",12.951181,77.639706
"Girinagara Extention,BESIDE KAVYA DIGITAL STUDIO",12.941119,77.53977
"Girinagara Circle,GIRINAGARA,OPPOSITE OF N.D.R.R.COMPLEX",12.940944,77.545124
"Girinagar Cross,AVALAHALLI BDA,BESIDE LG SHOW ROOM",12.943068,77.544502
"Muneshwara Block,MUNESHWARA BLOCK,BESIDE PRABHU BHAVAN SWEETS",12.942253,77.548456
"Nagendra Block,BANASHANKARI 3RD STAGE NAGENDRA BLOCK",12.94189,77.55326
"Apex Bank,BANASHANKARI 1ST STAGE HANUMANTHA NAGARA,BESIDE PLANTS SHOW  ROOM",12.94178,77.55587
"Maruthi Circle,HANUMANTHA NAGARA,OPPOSITE OF GANESHA TEMPLE, CHAMARAJA PETE",12.943472,77.558487
Sri Krishna Traders,12.943535,77.562101
"Hanumantha Nagara Ward Office,HANUMANTHA NAGARA,OPPOSITE OF AXIS BANK & HDFC BANK ATM",12.944034,77.564192
"Syndicate Bank,HANUMANTHA NAGARA,IN FRONT OF AMRIN BEDDING HOUSE",12.946514,77.564181
"8th Mile T Dasarahalli,8TH MILE,BESIDE A.K.SCOOTER WORKS",13.045537,77.505555
"Rukmini nagara,RUKMINI NAGARA,BESIDE OPEN AREA",13.040868,77.504875
"Nagasandra Cross,NAGASANDRA CROSS,BESIDE SRIDEVI ENTERPRISES",13.038617,77.50455
"Om timber,H.M.T.LAYOUT CROSS,BESIDE S.S.M. PUBLIC SCHOOL",13.033601,77.504136
"Nelagedaranahalli,NELAGADARAHALLI,BESIDE MANJU DELUXE BAR & RESTAURANT",13.031499,77.503546
"Gruhalaxmi layout,GRUHALAKSHMI LAYOUT,BESIDE B.B.M.P. OFFICE",13.02899,77.49792
"Karihobanahalli Cross,KARIHOBANAHALLI,BESIDE RESIDENTIAL AREA",13.024845,77.486395
"Thigalara Palya,THIGALARAPALYA,BESIDE RESIDENTIAL AREA",13.016685,77.483231
"Syndicate bank Colony Andrahalli,SYNDICATE BANK LAYOUT,BESIDE OPEN AREA",12.998066,77.489411
"Layout Herohalli,VENKATESHWARA LAYOUT,BESIDE PAVITHRA STORES",12.993282,77.488611
"Thunga Nagara,TUNGA NAGARA,BESIDE SNEHA TELECOMMUNICATIONS",12.991819,77.485199
Byadarahalli,12.985032,77.48201
Srinivasapura,12.989987,77.654918
"CGHS,C.V.RAMAN NAGARA,OPPOSITE OF THE AERONAUTICAL SOCIETY OF INDIA",12.986373,77.648151
"CV Raman Nagara,C.V.RAMAN NAGARA,IN FRONT OF HAL ENGINE DIVISION",12.983677,77.649421
"Banashankari 3rd Stage 2nd Phase,BESIDE HOSAKEREHALLI VIDYA NAGARA NEW BUS STAND",12.934151,77.539868
Seetha Cricle,12.93733,77.54907
"Bank Colony,BANASHANKARI 1ST STAGE, SRINIVASANAGARA,IN FRONT OF SULABH SHOWCHALAYA",12.938603,77.553544
"Srinivasa Nagara,BANASHANKARI 1ST STAGE, SRINIVASANAGARA,OPPOSITE OF BANK OF BARODA",12.938263,77.556526
"Abbigere Village,ABBIGERE,BESIDE PANCHAMUKHA GANAPATHI TEMPLE",13.076781,77.525956
Abbigere,13.072527,77.523624
"Abbigere Dinne,ABBIGERE,BESIDE SRI GANESH FAST FOOD",13.071177,77.527769
"Abbigere Cross,ABBIGERE CROSS,BESIDE OPEN AREA",13.070792,77.529561
"Kammagondanahalli Temple,KAMMAGONDANAHALLI,BESIDE POOJA JEWELLERS & BANKERS",13.063741,77.530655
"SRS Mathikere,KAMMAGONDANAHALLI,BESIDE SRI VENKATESHWARA RICE TRADERS",13.06094,77.531254
"KG Halli Post Office,KAMMAGONDANAHALLI,BESIDE LINO FOOT WEAR",13.056834,77.532736
"KG Halli Bridge,K.G.HALLI,BESIDE SALEEM STORES",13.055044,77.534697
"Jalahalli West,INDIAN AIR FORCE JALAHALLI,OPPOSITE OF NO.1 SNCOS MESS",13.052961,77.530272
"Shetty Halli Cross,INDIAN AIR FORCE JALAHALLI,NEAR & OPPOSITE OF STATE BANK OF INDIA ATM",13.05006,77.52549
"Jalahalli Cross Ayyappa Temple,JALAHALLI WEST,IN FRONT OF AYYAPPA TEMPLE",13.046352,77.522388
"Jalahalli Cross,PEENYA INDUSTRIAL AREA,OPPOSITE OF INDIAN BANK",13.03845,77.518322
"System Jalahalli Cross,PEENYA INDUSTRIAL AREA,IN FRONT OF NEW TIMBER INDUSTRY",13.034975,77.518053
"TVS Cross Peenya 2nd Stage,PEENYA INDUSTRIAL AREA,OPPOSITE OF SRI DHARMASTALA UPAHAR HOTEL",13.028159,77.518979
"Rolling Mill,PEENYA INDUSTRIAL AREA,IN FRONT OF HITZE EQUIPMENTS PVT LTD",13.026566,77.514923
"NTTF,N.T.T.F.CROSS,OPPOSITE OF INDIAN BANK",13.024287,77.510828
"Brundavana Peenya 2nd Stage,PEENYA INDUSTRIAL AREA 2ND STAGE,OPPOSITE OF INDIAN BANK",13.020451,77.508245
"Peenya 2nd stage 14th Cross,PEENYA INDUSTRIAL AREA 2ND STAGE,OPPOSITE OF PEENYA GYMKHANA",13.016319,77.505962
"Rajagopalanagar Rajni Farms,PEENYA INDUSTRIAL AREA 2ND STAGE,BESIDE CANARA BANK ATM",13.013822,77.508919
Nelamangala,13.097812,77.394354
TB Stop Nelamangla Road,13.097274,77.401343
Weavers Colony Nelamangala,13.094276,77.405434
Nursery,13.090295,77.409241
Binnamangala,13.087475,77.412542
Arishinakunte,13.080295,77.424022
Devanna Palya,13.07793,77.430719
Dasanapura,13.075384,77.436401
Adakamaranahalli,13.070708,77.444904
Makali,13.065796,77.45366
Madanayakanahalli,13.061258,77.461307
TCI Tumkur Road,13.059097,77.465966
Madavara,13.056733,77.474723
Anchepalya Nelamangla Road,13.055258,77.479855
Jindal,13.053998,77.483298
Chikka Bidarakallu,13.052484,77.487408
Morision Factory,13.050781,77.492178
Widia School Tumkur Road,13.049104,77.496842
Deepak,13.047303,77.501702
8th Mile T Dasarahalli,13.045226,77.508359
"Srinagara,Hanuman temple",12.944134,77.554291
"Byatarayana Pura,BYATARAYANAPURA,BESIDE GOVERNMENT SCHOOL",13.067168,77.593482
SBM ATM,13.06654,77.59607
"Amrutahalli,AMRUTHAHALLI,BESIDE S.L.J. IYENGAR BAKERY & SWEETS",13.065735,77.600713
Jakkur Layout,13.0695,77.60158
"18th Cross Srirampura,AMRUTHAHALLI,BESIDE APARTMENTS",13.068806,77.603539
"Srirampura Cross,JAKKURU,BESIDE MAHATMA GANDHI INSTITUTE OF RURAL ENERGY & DEVELOPMENT",13.066669,77.609675
"Srirampura,SRIRAMPURA,BESIDE MESTRIPALYA LAKE",13.065824,77.620139
"Mestripalya,MESTRIPALYA,IN FRONT OF CHURCH",13.061313,77.620413
"Rachenahalli Hegde Nagar,RACHENAHALLI,OPPOSITE OF DR.B.R.AMBEDKAR  YUVKAR SANGHA",13.058161,77.6236
"Tanisandra,THANISANDRA,OPPOSITE OF IYENGAR BAKERY",13.056014,77.632367
Ashwathanagara Nagawara,13.052489,77.631313
Sarai Palya Nagawar,13.047249,77.628595
NAGAVARA JUNCTION,13.040508,77.624556
"Hebbala Bridge,HEBBALA,BESIDE LAKE",13.043679,77.590506
"Military Dairy Farm,BESIDE MILITARY COMPOUND",13.04948,77.592621
"Amrutahalli,AMRUTHAHALLI,BESIDE AMRUTH CLINIC",13.065638,77.600768
"Byatarayana Pura,BYATARAYANAPURA,BESIDE B.B.M.P PUBLIC SERVICE CENTER",13.067267,77.593593
"Hebbala,HEBBALA,BESIDE LAKE",13.043014,77.590097
Yelahanka Satelite Town 5th Phase,13.105968,77.572517
Yelahanka Bakery,13.107081,77.575863
Government School,13.103304,77.576827
Mother Dairy,13.0994,77.57693
Yelahanka Satellite Town,13.09586,77.57913
Chikka Bommasandra,13.09422,77.58269
Sharavathi Hotel,13.09759,77.58419
Sheshadripuram College,13.099711,77.588641
Yelahanaka NES Office,13.097787,77.591781
Yelahanka Police Station,13.094034,77.59439
Allalasandra Gate Yalahanka,13.086687,77.593872
Aerodrum Devanahalli Road,13.07687,77.593
GKVK,13.07278,77.59274
Byatarayana Pura,13.06658,77.59335
Kodigehalli,13.056796,77.593645
"Military Dairy Farm,BESIDE ESTEEM MALL",13.049735,77.592964
Hebbal,13.038978,77.589648
"ISRO Layout,ISRO LAYOUT,NEAR BY BHARATHIYA STATE BANK",12.898807,77.558137
"Kumaraswamy Layout,KUMARA SWAMY LAYOUT,BESIDE BMTC MAIN BUS STAND",12.902933,77.561778
"Kumaraswamy Layout Police Station,KUMARA SWAMY LAYOUT,IN FRONT OF IIFL",12.905622,77.562869
"Dayananda Sagar College,KUMARASWAMY AYOUT 2ND STAGE,IN FRONT OF RAMADEVA STATIONERIES",12.909564,77.565253
Domlur,12.961111,77.638175
KODIHALLI,12.960064,77.647236
Manipal Hospital,12.959689,77.650721
"Murgeshpalya,Opp.Sir MV COLLAGE",12.959278,77.658056
Rajeshwari Talkies,12.959318,77.660352
HAL Main Gate,12.958289,77.667926
"BEML Gate,HAL 3RD STAGE,OPPOSITE OF BEML FINE ARTS CLUB",12.971639,77.658297
"GTRE,HAL 3RD STAGE,OPPOSITE OF BEML LIMITED BANGALORE COMPLEX",12.975812,77.655513
GTRE,12.983644,77.649161
"NGEF Ground,SADANANDA NAGARA,IN FRONT OF N.G.E.F.FACTORY",12.991936,77.651788
"Sadananda Nagara,SADANANDA NAGARA,IN FRONT OF DOOR NO 188",12.99441,77.658027
"Kasthurinagara,KASTURI NAGARA,OPPOSITE OF KASTURI BAKERY",13.002731,77.661035
"Jn Of Ring Road Channasandra,RAMAMURTHI NAGARA,BESIDE RAILWAY BRIDGE",13.013223,77.662785
"Ramamurthinagar Police Station,RAMAMURTHI NAGARA,IN FRONT OF POLICE STATION",13.01209,77.667796
"Alada Mara Ramamurthy Nagar,RAMAMURTHI NAGARA,OPPOSITE OF HI-FASHION FAMILY STOP",13.011535,77.676941
"Church RM Nagar,RAMAMURTHI NAGARA,IN FRONT OF VISMAYA ENTERPRISES",13.011762,77.678797
"ITI Circle,DOORAVANI NAGARA,IN FRONT OF VIJAYALAKSHMI ENTERPRISES",13.008053,77.683226
"ITI Gate,DOORAVANI NAGARA,BESIDE ITI QUARTERS",13.005524,77.684674
"JP Nagara 3rd Phase,JP NAGARA 3RD PHASE,BESIDE H.D.F.C.BANK",12.907015,77.600213
"Jn of 8th Main and 3rd Cross,JP NAGARA 2ND PHASE,BESIDE D.T.D.C.",12.907545,77.595011
"Milk Booth,JP NAGARA 2ND PHASE,BESIDE NANDINI PARLOUR",12.909855,77.595098
Ramakrishna Hegde Nagara,13.072202,77.633761
Narayanapura Cross,13.06782,77.633696
Tanisandra,13.056246,77.633004
"Kempegowda Bus Station,MAJESTIC,BESIDE AMAR HOTEL",12.978678,77.573219
Cottonpet Hospital,12.962238,77.569156
"Royan Circle,CHAMARAJA PETE,CHURCH OPEN SPACE, OPPOSITE BHARATH PETROL BUNK",12.96117,77.568859
"Chamarajapete,CHAMARAJA PETE,IN FRONT OF MANAPURAM GOLD",12.956105,77.567517
"Bangalore High School,SHANKARAPURAM,IN FRONT OF MARATHA HOSTEL",12.953393,77.567628
"Ramakrishna Ashrama,BASAVANAGUDI,OPPOSITE INDUS BANK",12.946799,77.567833
"Hanumantha Nagara Ward Office,HANUMANTHA NAGARA,BESIDE NAGINI CREDIT CO-OPERATIVE SOCIETY",12.943247,77.565866
"Subramanya temple,HANUMANTHA NAGARA,IN FRONT OF CAUVERY FURNITURE SHOWROOM",12.94163,77.562019
"Nirmala Stores,HANUMANTHA NAGARA,OPPOSITE OF SANGEETHA MEDICALS",12.941532,77.559671
"Bidadi,BIDADI,BESIDE BIDADI B.M.T.C. MAIN BUS STAND",12.797384,77.384776
"Railway Station Bidadi,BIDADI,IN FRONT OF RAILWAY STATION",12.799776,77.390827
"Byramangala Cross,BIDADI,IN FRONT OF PARVATHI ENTERPRISES",12.802154,77.397902
MEDANAHALLI,12.789175,77.398544
BAIRAVANA DODDY,12.786341,77.399921
COCO COLA,12.781249,77.403972
Innovative Film city,12.779639,77.405029
Abbanakuppe,12.773901,77.409659
DEPOT-36,12.769248,77.413332
Byramangala Lake,12.77609,77.42027
Kiabd 2nd Phase,12.79544,77.4234
"Eagleton Gate,IN FRONT OF EAGLETON RESORTS",12.810702,77.416025
Kadumane Hotel,12.815,77.40724
"Billakempana Halli,BILLA KEMPANAHALLI,OPPOSITE OF RAILWAY GATE",12.812066,77.404038
"Byramangala Cross,BIDADI,OPPOSITE OF TYAGARAJU CENTRAL SCHOOL",12.803507,77.398463
"Railway Station Bidadi,BIDADI,OPPOSITE OF RAILWAY STATION",12.799473,77.390726
"Bidadi,BIDADI,IN FRONT OF GOVERNMENT HOSPITAL",12.796598,77.384527
Bagaluru,13.134471,77.667821
Chocolate,13.122326,77.66836
Hosur Bande,13.106071,77.660868
Kannuru,13.092901,77.654537
Ambedkar Bhavana,13.064661,77.651924
Kothnuru Bagalur Road,13.061567,77.648922
Byrathi Cross,13.056926,77.648268
"Padmanabha Nagara,PADMANABHA NAGARA,OPPOSITE OF STATE BANK OF INDIA",12.917615,77.559691
"Devegowda Petrol Bunk,BANASHANKARI 3RD STAGE,BESIDE BIG MEGA MART",12.922821,77.560247
"Kempegowda Medical  Hospital,BANASHANKARI 3RD STAGE,OPPOSITE OF KEMPEGOWDA MEDICAL COLLEGE",12.926924,77.561387
"Indira Nursing Home Tyagarajanagar,BANASHANKARI 2ND STAGE,BESIDE INDIRA NURSING HOME",12.929265,77.564133
"Post Office,BANASHANKARI, 2ND STAGE,OPPOSITE POST OFFICE, BANASHANKARI, 2ND STAGE",12.926334,77.569878
"Monotype,BANASHANKARI, 2ND STAGE,OPPOSITE OF THALAM AL-TIUS",12.921774,77.570582
"Hunase Mara Banashankari,BANASHANKARI 2ND STAGE,INFRONT OF BRIGADE SOFTWARE PARK",12.921023,77.573318
Deepak Nursing Home,12.926572,77.576943
Yediyur,12.93032,77.576297
Nanda Talkies,12.932336,77.580048
"Vijaya College,BASAVANAGUDI,OPPOSITE OF INFORMATICS",12.939051,77.579934
"RV Teachers College,BASAVANAGUDI,BESIDE MEGA AGENSIS",12.944399,77.579964
"Lalbagh West Gate,V.V.PURAM,BESIDE HDFC BANK",12.949526,77.579896
"Minarva Circle,V.V.PURAM",12.953674,77.579882
"Town Hall,OPPOSITE OF RANI CHANNAMMA STATUE",12.963541,77.585004
"Corporation,CORPORATION,IN FRONT OF BANAPPA PARK",12.968528,77.586469
"Cauvery Bhavana,K.R. MARKET,OPPOSITE OF BWSSB",12.972108,77.582488
"Kadirenahalli Park,BANASHANKRI 2ND STAGE KAVERI NAGARA,BESIDE SRINIVASA STEEL & CEMENT TRADERS",12.917658,77.564333
Shanthi Nagara Bus Station,12.954794,77.592559
Double Road Shanthinagar,12.958441,77.593011
"Kumaraswamy Layout 2nd Stage,KUMARASWAMY LAYOUT 2ND STAGE,IN FRONT OF KEMPEGOWDA GOVT.HIGHER PRIMARY SCHOOL",12.905881,77.558019
"Water tank kumaraswamy layout,KUMARASWAMY AYOUT 2ND STAGE,OPPOSITE OF S.S.CONDIMENTS & BANAKARAS DIGITAL STUDIOS",12.908534,77.561659
"Padmanabha Nagara Rock,PADMANABHA NAGARA,IN FRONT OF B.B.M.P.WARD OFFICE, PADMANABHA NAGARA",12.918547,77.557402
Padmanabhanagara Circle,12.91696,77.55939
"Kadirenahalli Park,BANASHANKRI 2ND STAGE KAVERI NAGARA,BESIDE HANUMAN MANDIR",12.917669,77.564523
"Chennamma kere Achukattu,BANASHANKARI 3RD STAGE,MAIN STAND",12.928336,77.556704
"Chennamma kere Achukattu park,BANASHANKARI 3RD STAGE,OPPOSITE OF KARNATAKA BAR",12.926181,77.553551
"Kamakya Talkies,BANASHANKARI 3RD STAGE,IN FRONT OF BMTC DEPOT-13",12.923769,77.5541
"Jaraganahalli House Building Co-Op-Society Layout,J.H.B.C.S.COLONY,IN FRONT OF PARK VIEW DEPARTMENTAL STORES",12.911116,77.564461
"JHBCS Cross,J.H.B.C.S.COLONY,IN FRONT OF JARAGANAHALLI HOUSING SOCIETY LTD",12.912998,77.564794
"AGS Layout,A.G.S. LAYOUT,NEAR B.M.T.C. BUS STAND",12.912314,77.53713
"AGS Layout Cross,A.G.S. LAYOUT,OPPOSITE OF ANNAPOORNESHWARI TENT HOUSE",12.913543,77.540855
"VB BAKERY,MARUTHI NAGARA,IN FRONT OF U.B.B. BAKERY",12.919405,77.542185
"Srinivasa Kalyana Mantapa,ITTAMADU,OPPOSITE OF DOUBLE COCONUT TREES",12.926232,77.544517
"Banashankari 3rd Stage 3rd Phase,BANASHANKARI 3RD STAGE,IN FRONT OF LITTLE MILLENIUM NURSERY SCHOOL",12.925009,77.550843
"Minaz Nagara,MINAZ NAGARA,BESIDE MANJUNATHA BAKERY & MINHAJ MEDICALS",12.912116,77.561912
"Chowdeshwari Bus Stand JP Park,MATHIKERE, CHOUDESHWARI BUS STOP,IN FRONT OF LOK ANAND APARTMENTS",13.033177,77.554172
Mathikere,13.034203,77.557762
"Mathikere Post Office,MATHIKERE,IN FRONT OF SAI KRUPA HOSPITAL",13.029404,77.559359
"Kamala Neharu Extension,YESHAWANTHAPURA,IN FRONT OF NEW STAR BEDDING HOUSE",13.025614,77.557673
"Yeshwanthpura Market,YESHAWANTHAPURA,IN FRONT OF STATE BANK OF INDIA",13.020383,77.555836
Yashwanthpura Circle,13.01879,77.55781
Fayazabad,12.90354,77.56807
"Jayanagara Bus Stand,JAYANAGARA 4TH BLOCK,BESIDE KCC BUILDING",12.92985,77.586139
Jayanagara Church,12.92716,77.58969
"Jayanagara General Hospital,JAYANAGARA 4TH T BLOCK,BESIDE UDUPI UPAHAR",12.927108,77.592977
"Carmel Convent Jayanagara,JAYANAGARA 4TH T BLOCK,BESIDE CARMEL CONVENT",12.926338,77.597207
"Pump House Jayanagar East End,JAYANAGARA 9TH BLOCK,BESIDE SURABHI ARTS",12.921992,77.597079
"Jayadeva Hospital,JAYANAGARA 9TH BLOCK,HEALTHY INTERNATIONAL HOMEOPATHY",12.916858,77.597469
MICO Layout,12.914136,77.600111
"Jalahalli Cross,JALAHALLI WEST,IN FRONT OF MUTHOOT FINANCE",13.040995,77.518917
"Byrasandra,JAYANAGARA 1ST BLOCK,BESIDE AKKANDESHWARA SWAMY TEMPLE",12.932848,77.589415
"Rani Saraladevi School,JAYANAGARA 1ST BLOCK,BESIDE SATYASAI TOURS & TRAVELS",12.937432,77.584945
"Ashoka Pillar,JAYANAGARA 1ST BLOCK,OPPOSITE OF GOVT.CENTRAL PHARMACY",12.943562,77.584839
"Chandapura,ANEKAL TALUKU,BESIDE SWAMI VIVEKANANDA RURAL EDUCATION ,SOCIAL ASSOCIATION",12.802057,77.704733
"Hennagra Gate,BOMMASANDRA,OPPOSITE OF UNION BANK ATM,GOWDRA COMPLEX",12.807121,77.698707
"BTL College,BOMMASANDRA,OPPOSITE OF NARAYANA HRUDALAYA HOSPITAL",12.810815,77.695721
"Bommasandra,BOMMASANDRA,IN FRONT OF D-MAST MALL",12.81833,77.689856
"Hebbagodi,HEBBAGODI,OPPOSITE OF SHRI PRASANNA ANJANEYA SWAMI TEMPLE",12.827158,77.682489
"Huskur Gate,ELECTRONIC CITY POST,BESIDE ESTATE GARDEN",12.837272,77.678983
"Veerasandra Gate,ELECTRONIC CITY POST,IN FRONT OF SHANKAR INFRASTRUCTURE MATERIAL LIMITED",12.83972,77.677338
"Electronic City,ELECTRONIC CITY POST,OPPOSITE OF N.T.T.F. FOUNDATION",12.848213,77.670766
"Konnappana Agrahara,ELECTRONIC CITY POST,IN FRONT OF AXIS BANK",12.854118,77.666118
PESCollege,12.858726,77.662413
Hosa Road,12.870699,77.652928
Singasandra,12.878733,77.646572
Kudlu Gate,12.889887,77.639684
Garvebhavi Palya,12.89628,77.635748
Bommanahalli,12.905348,77.630184
Roopena Agrahar,12.911898,77.626123
Madiwala Police Station,12.920047,77.620718
"Mosque,MADIWALA,IN FRONT OF KHYKHA COURT",12.92582,77.61726
StJohns Hospital,12.928708,77.615359
"Jn of Hosur Road,KORAMANGALA,IN FRONT OF STAPLES STATIONARYS EAST LAND CITYDEL",12.931962,77.613161
"Muneshwara Temple,SADGUNTE PALYA,OPPOSITE OF CHOUSIA ITI POLYTECHNIC COLLEGE",12.936047,77.607119
"Nimhans Hospital,IN FRONT OF KIDWAI HOSPITAL",12.938511,77.598245
"Lakkasandra,LAKKASANDRA,IN FRONT VIGNANA HOSPITAL",12.944316,77.596962
"Wilson Garden 10th Cross,WILSON GARDEN,BESIDE KARNATAKA HANDBALL ASSOCIATION",12.946623,77.596041
"Wilson Garden Police Station,WILSON GARDEN,OPPOSITE OF SYNDICATE BANK",12.950656,77.595811
Nayanappa Shettipalya,12.908627,77.603704
"BTM Layout South,MADHESHWARA NAGARA,BESIDE BUS STOP",12.907728,77.611032
BTM Layout 7th Main,12.913952,77.609999
"Rajarajeshwari Temple,RAJESHWARI NAGARA,OPPOSITE OF RAJA RAJESHWARI TEMPLE",12.926807,77.51102
Balajinagara,12.928055,77.604467
Ashrama Bismilla Nagara Bannerghatta Road,12.926299,77.600536
"JPNagara 6th Phase,J.P.NAGARA 6TH PHASE,IN FRONT OF NANDHINI HOTEL",12.905723,77.585666
"Thyagaraja Nagara,THYAGARAJA NAGARA 2ND BLOCK,BESIDE IYANGAR BAKERY",12.932442,77.56782
"M M Industries,BANASHANKARI, 2ND STAGE,IN FRONT OF KODAK EXPRESS STUDIO",12.929014,77.573521
"Tata Silk Farm,BASAVANAGUDI,IN FRONT OF GARADI APARTMENT",12.935623,77.573737
Dattatreya Temple,12.93441,77.56585
"NRColony,N.R.COLONY,BESIDE BBMP OFFICE, OPPOSITE AMBHA BHAVANI TEMPLE",12.937962,77.56897
Dommasandra ,12.879466,77.753876
"Chandapura Cross,DOMMASANDRA,IN FRONT OF HOTEL SHRI LAKSHMI & N.R STORE",12.887087,77.738416
"Chokkanahalli Gate,Chokkanahalli ,ABR Cricket Ground",12.873079,77.734019
"Head Start School Gate,Kommasandra,Temple",12.861552,77.732685
"Kaggalipura Gate,Kaggalipura,Junction Near Jcc Park",12.843226,77.727921
"Chikka Thimmasandra Gate,CHikka Thimmasandra,IOCL Gas Station",12.852662,77.730199
"Muttanallur Cross,MUTHANALLURU,IN FRONT OF R.R.WINES",12.842872,77.727538
"Narayana Ghatta,ANEKAL TALUK,IN FRONT OF ASHWATHA KATTE",12.837692,77.724579
"Ramasagara,ANEKAL TALUK,OPPOSITE OF SRI BASAVESHWARA TEMPLE",12.820754,77.718802
"Heelalige,Heelalige,Hanuman Temple",12.817503,77.709151
"Chandapura,ANEKAL TALUK,IN FRONT OF PANCHAYAT COMPLEX & S.K.MEDICAL & GENERAL STORE",12.802835,77.704638
"Igglur,CHANDAPURA POST & ANEKAL TALUK,BEHIND SRI VENUGOPAL SWAMY TEMPLE",12.786545,77.703324
"Ramakrishnapur gate ,ANEKAL TALUK,OPPOSITE OF SRI PRASANNA VENKATESHWARA SWAMY TEMPLE ARCH",12.778852,77.702166
"Marsoor gate ,ANEKAL TALUK,OPPOSITE OF BHARAT PETROL BUNK, CG CABLES & WIRES INDIA PRIVATE LIMITED",12.76942,77.701505
"Begadadevanahalli,ANEKAL TALUK,OPPOSITE OF GOVERNMENT PRIMARY SCHOOL",12.752205,77.706729
"Avadadenahalli,Avadadenahalli,Tree",12.746658,77.707681
"Karpoora Gate,Karpoora,Tea Shop",12.73567,77.708137
"Chikka Hagade Gate,Chikka Hagade,Tree",12.731442,77.706549
"Kavala Hosahalli,Anekal,Temple",12.724703,77.704064
"Anjaneya Temple,Anekal,Temple",12.71014,77.697688
"Devarakondappa Circle,Anekal,Circle Pillo",12.709206,77.6983
"Indlawadi Cross,Opp to open area",12.732044,77.670709
"Sidihosakote,ANEKAL TALUK,OPPOSITE OF GOVERNMENT SENIOR PRIMARY SCHOOL",12.729979,77.687595
"Doddahagade,ANEKAL TALUK,IN FRONT OF AGRICULTURE SERVICE CO-OPERATIVE SOCIETY",12.746812,77.689785
"Begadadevanahalli,ANEKAL TALUK,IN FRONT OF GOVERNMENT PRIMARY SCHOOL",12.752126,77.706547
"Marsoor gate ,ANEKAL TALUK,IN FRONT OF BHARAT PETROL BUNK, CG CABLES & WIRES INDIA PRIVATE LIMITED",12.769994,77.701323
"Ramakrishnapur gate ,ANEKAL TALUK,IN FRONT OF SRI VENKATESHWARA SWAMY TEMPLE ARCH",12.779066,77.702055
"Hosakerahalli village,HOSAKEREHALLI,IN FRONT OF S.L.N.TYPING COMPUTER EDUCATION CENTER",12.930135,77.539691
"Handenahalli,Bidarguppe,Near Thyavakanahalli",12.824988,77.76605
"Solusapura,SARJAPURA, HOBLI,BESIDE GOVT. PRIMARY SCHOOL",12.83025,77.756628
"Sammenahalli,SARJAPURA, HOBLI,IN FRONT OF MILK PRODUCT CO.OPERATIVE SOCIETY",12.832601,77.747684
"Muneshwara nagara Kerekodi,HOSKEREHALLI,IN FRONT OF SRI SAI RAMA CONDIMENTS",12.929437,77.535032
Muneshwara Temple,12.93043,77.53386
"D Souza Nagara,HOSKEREHALLI,IN FRONT OF R.K.S.STEELS & CEMENTS",12.931905,77.532853
Veerabhadranagar,12.93805,77.53366
PES College,12.93505,77.53694
"Hosakerehalli Junction,BANASHANKARI 3RD STAGE DWARAKA NAGARA,OPPOSITE OF R.K.COLOUR LAB",12.933627,77.539478
"Hosakerahalli Cross,BANASHANKARI 3RD STAGE,IN FRONT OF BWSSB",12.932996,77.545422
"Krishnappa Layout,KRISHNAPPA LAYOUT,IN FRONT OF IYENGARS BAKERY & DURGA PARAMESHWARI CONDIMENTS",12.923005,77.529594
"Muneshwara nagara Kerekodi,HOSAKERE HALLI KEREKODI,IN FRONT OF RAMANJANEYA TEMPLE",12.929463,77.534675
"APMC Fruit Market,Huskuru,Near Sigena Agrahara",12.84296,77.687424
"Sampige,ELECTRONIC CITY POST,IN FRONT OF AMBIKA DEPARTMENT STORE",12.834501,77.697243
"Singhena agrahara,ANEKAL TALUK,OPPOSITE OF MILK DAIRY",12.837665,77.71617
"Kempegowda Swimming Pool,BHAVANI NAGARA,IN FRONT OF KEMPEGOWDA SWIMMING POOL",12.94836,77.559124
"Gavigangadeshwara Temple,KEMPEGOWDA NAGARA,IN FRONT OF VASAVI MENS WEAR",12.949156,77.562726
"Kohinoor Ground,GAVIPURAM EXTENTION,IN FRONT OF D.NAGANNA PLAY GROUND",12.947295,77.566382
Sarjapura Bus Stand,12.861405,77.78546
"Sarjapura Police Station,Sarjapura,Police Station",12.860755,77.783635
Garments,12.844605,77.783142
boorugunte,12.842235,77.783788
"Billapura,SARJAPURA, HOBLI,IN FRONT OF GOVT. PRIMARY SCHOOL",12.837454,77.785077
Exide Factory,12.835134,77.785362
"Tyavakanahalli,SARJAPURA HOBLI,OPPOSITE OF S.V.S. PROVISION STORE",12.827821,77.786302
"Modhalli,SARJAPURA HOBLI,IN FRONT OF MILK PRODUCT CO-OPERATIVE SOCIETY",12.823533,77.786121
Silk Form,12.81579,77.785346
Bidaraguppa,12.806021,77.783606
"Indlubele,ATTIBELE HOBLI,IN FRONT OF GOVT. JUNIOR PRIMARY SCHOOL",12.791049,77.776323
"Jigala cross,ATTIBELE,IN FRONT OF MAYURA BAKERY & SWEETS",12.781964,77.77194
Attibele,12.778562,77.770136
"TVS Cross Attibele,Attibele,OPPOSITE OF SRI MUKAMBIKA HOTEL",12.768507,77.770191
"Arehalli,ATTIBELE-HUBLI,OPPOSITE OF SRI MARAMMA DEVI TEMPLE",12.763219,77.767064
"Bhakthipura,ANEKAL TALUK,BESIDE OPEN AREA & FIELD",12.757196,77.761744
"Harohalli,ANEKAL TALUK,OPPOSITE OF SRI YALLAMMA DEVI TEMPLE & IN FRONT OF SUMANT STORE",12.754003,77.755956
"Mayasandra,ANEKAL TALUK,IN FRONT OF GOVERNMENT PRIMARY SCHOOL",12.750411,77.748009
"Thattanahalli Gate,Thattanahalli",12.735411,77.730822
Besthamana Halli,12.731021,77.726819
Karpura Gate,12.724312,77.72087
Haldenahalli,12.71708,77.708925
"Anekal ,ANEKAL,BUS STAND",12.709151,77.696718
"Avalahalli BDA Park,AVALAHALLI BDA,BESIDE BESCOM",12.943286,77.543034
"Girinagar Cross,AVALAHALLI BDA,OPPOSITE OF SRINIVASA IYANGAR BAKERY",12.943286,77.544494
"Muneshwara Block,MUNESHWARA BLOCK,BESIDE SOHAN ENTERPRISES",12.94233,77.548629
"Muneshwara Block,MUNESHWARA BLOCK,BESIDE TEJASHWINI JUICE & CHATS",12.944952,77.548755
"Kalidasa Layout,LAST BUS STOP",12.948445,77.552782
"Telecom Colony Cross,RAGHAVA BLOCK,BESIDE DEEPA CONDIMENTS",12.948423,77.549359
"Avalahalli New BDA Layout,AVALAHALLI BDA,BESIDE INDANE LPG GODOWN",12.94345,77.536784
"Srinagar,BUS STAND",12.944397,77.554721
"Timber Yard Layout,BYATARAYANAPURA,OPPOSITE OF NAGADEVATHA TEMPLE",12.948353,77.543384
"Girinagara Circle,GIRINAGARA,BESIDE GIRINAGARA VISION CARE",12.941115,77.545031
Girinagara Cross,12.943108,77.544869
"NARASAPURA,ATTIBELE HOBLI,OPPOSITE OF SRI CHOWDESHWARI DEVI TEMPLE & ASHWATA KATTE",12.800362,77.801595
"Virabhadranagara Cross,VEERABHADRA NAGARA,BESIDE SRINIVASA BAR & RESTAURANT",12.938083,77.533752
Pramod Layout,12.9362,77.527867
"ANJANEYA TEMPLE,PRAMODHA LAYOUT,OPPOSITE OF ANJANEYA TEMPLE",12.938475,77.528821
Haridasa Nagara,12.91845,77.5273
"Bhuvaneshwari Nagara Mahalakshmi Temple,BHUVANESHWARI NAGARA,IN FRONT OF MAHALAKSHMI TEMPLE",12.921802,77.550936
"Bhuvaneshwari Nagara PARK,BHUVANESHWARI NAGARA,IN FRONT OF B.D.A.PARK & PUBLIC TOILETS",12.922784,77.549076
"Dattatraya Nagara Temple,HOSAKEREHALLI,IN FRONT OF BYRAVESHWARA CONDIMENTS",12.923296,77.540406
VB Bakery,12.91954,77.5421
"Ittamadu,ITTAMADU,IN FRONT OF VENKATESHWARA AQUARIUM",12.924038,77.543644
"Brudavana Nagara Jinke vana,BRINDAVANA NAGARA,IN FRONT OF RAJIV GANDHI SPORTS COMPLEX",12.950453,77.555456
"Vittala Nagara,CHAMRAJAPET,IN FRONT OF VITTALA MANDIRA",12.954131,77.556852
T R Mill,12.95689,77.55929
"Chamarajapete Ramamandira,CHAMARAJA PETE,IN FRONT OF AXIS BANK",12.957046,77.562882
"Brundavananagara Jinke Park,Chamarajpet,Rajiv Gandhi Sports Complex",12.950606,77.555413
"Raghavendra Colony,CHAMARAJA PETE,IN FRONT OF SIDDALINGESHWARA STORE",12.957759,77.559557
"Vinayaka Nagara,HALEGUDDADAHALLI,BESIDE HOLY ROCK CONVENT",12.961015,77.550906
"Goripalya Cross,HALEGUDDADAHALLI,OPPOSITE OF EIDGA GROUND",12.960152,77.554982
"Kempapura Agrahara,K.P.AGRAHARA,IN FRONT OF KADAPA SWAMY MATHA",12.969126,77.554546
KP Agrahara 16th cross,12.969555,77.556582
Kempapura Railway Gate,12.968621,77.559257
"Binni Pete,BINNI PETE,HOPCOMS MARKET",12.964565,77.561871
"Saraswathi Nagara Vijayanagara,SARASWATHI NAGARA,IN FRONT OF VIJAYANAGARA POLICE OUT POST",12.971942,77.529173
"Prashanthanagar,VIJAYANAGARA,OPPOSITE OF SHOBA NURSING HOME",12.97561,77.531137
"Govindaraj Nagara,GOVINDARAJA NAGARA,IN FRONT OF GOVINDARAJA SWAMY TEMPLE",12.975532,77.536594
"Vijayanagara,VIJAYANAGARA,BESIDE OM ARCADE, SONY SHOW ROOM",12.971842,77.537872
"Maruthi mandira,VIJAYANAGARA,BESIDE BUNNY BAKERY",12.967603,77.536326
"Vijayanagara TTMC,REMCO LAYOUT, VIJAYANAGARA,BESIDE DR. SHETTY MATERNITY CLINIC",12.963707,77.534549
"Marenahalli,MARENAHALLI, VIJAYANAGARA,IN FRONT OF MANJUNATHA PROVISION STORES",12.969958,77.532123
"Nayandahalli Railway Gate,NAYANDAHALLI,OPPOSITE OF PRASHANTH MINERALS",12.946699,77.525882
"Gangondahalli Mazeed,GANGADHARA HALLI, AHMED NAGARA,IN FRONT OF S.H.TAILORS",12.949583,77.52677
"Gangondahalli Church,GANGADHARA HALLI, AHMED NAGARA,IN FRONT OF A.A.F.FANCY STORES",12.951168,77.527012
"Gangondahalli Water Tank,GANGADHARA HALLI, AHMED NAGARA,IN FRONT OF ROYAL AUTO PARTS",12.952742,77.527291
Chandra Layout,12.95806,77.52662
"Chandra Layout 1st Stage,CHANDRA LAYOUT 1ST STAGE,OPPOSITE OF DOOR NO 1047",12.953032,77.521693
"Siddaganga School,CHANDRA LAYOUT 1ST STAGE,OPPOSITE OF SIDDAGANGA SCHOOL",12.954531,77.522599
"Jyothi Nagara 6th Cross,IN FRONT OF DAILY NEEDS",12.957377,77.523342
"Chandra Layout 14th Cross,CHANDRA LAYOUT,IN FRONT OF VINAYAKA ENTERPRISES",12.958929,77.52361
"Chandra Layout,CHANDRA LAYOUT,BESIDE B.M.T.C.BUS STAND",12.959208,77.526769
"GKW Layout,G.K.W.LAYOUT,BESIDE HOPCOMS",12.96816,77.52852
"Vinayaka Layout,VINAYAKA LAYOUT,OPPOSITE OF NAGARAJ ORTHOPAROLIC CLINIC",12.965502,77.53043
"Subbanna Garden,SUBBANNA GARDEN,IN FRONT OF MANJUNATH FLOOR MILL",12.96461,77.532224
"Hampinagara RPC Layout,LAST BUS STOP",12.958872,77.535476
"Hampinagara 7th Cross,VIJAYANAGARA,BESIDE GOMINI MEDICALS",12.962137,77.537523
"Basaveshwara Nagara,BASAVESHWARANAGARA,BESIDE BMTC MAIN BUS STOP",12.988563,77.533686
"Basaveshwara Nagara,BASAVESHWARANAGARA,IN FRONT OF ANAD CO-OPERATIVE BANK LTD",12.987448,77.537479
"Unani Hospital,BASAVESHWARANAGARA,IN FRONT OF UNION BANK",12.98221,77.537296
"Rajaji Nagara Ramamandira,RAJAJI NAGARA,OPPOSITE OF SRI RAMA TEMPLE",12.98607,77.55636
"Bashyam Circle,RAJAJINAGARA,BESIDE PRABHU BOOK WORKS",12.984883,77.554082
"Rajaji Nagar Old Police station,RAJAJINAGARA,BESIDE SAHITYA LOKA BOOK HOUSE",12.989235,77.554272
"Rajajinagara ESI Hospital,RAJAJINAGARA,OPPOSITE OF ESI HOSPITAL",12.991428,77.552556
"Basaveshwara College,RAJAJINAGARA,BESIDE SACHIN REPROGRAPHICS",12.994401,77.552655
"Navarang Talkies,RAJAJINAGARA,BESIDE SHIKAR BAR",12.997907,77.55129
"Mariyappana Palya,RAJAJIANAGARA 2ND BLOCK,BESIDE UTTAM TEA AGENCIES",12.99868,77.556305
"Harishchandra Ghat,GAYTRI NAGARA,BESIDE INDIAN OIL PETROL BUNK",12.99722,77.56062
"Devaiah Park,NAGAPPA BLOCK,BESIDE CANARA BANK",12.99642,77.56406
"Malleshwaram Circle,KC GENERAL HOSPITAL,BESIDE MALLESHWARAM GROUND",12.996872,77.56884
"Link Road,MALLESHWARAM,BESIDE PRASAD STRORES",12.994236,77.573859
"Swastik ,NEHARU NAGARA,BESIDE SSR TRAVELS",12.988712,77.575161
"Shivananda store,NEHARU NAGARA,BESIDE DESAI NURSING HOME",12.98717,77.5787
"RC College,VASANTHA NAGARA,BESIDE R.C.COLLEGE",12.98418,77.58711
"High Ground Police Station,VASANTHA NAGARA,BESIDE SOPHIA SCHOOL",12.98546,77.58842
"Avinasha Petrol Bunk,VASANTHA NAGARA,BESIDE PETROL BUNK",12.990415,77.58895
Vasantha Nagara,12.992716,77.594967
Contonment Railway Station,12.993851,77.597257
CSI,12.989652,77.599365
"Vinayaka Nagara Nayandahalli,Nayandahalli",12.945752,77.51988
"MCTC Bus Stand,BAPUJINAGAR",12.954014,77.543773
"Mahalakshmi Layout,MAHALAKSHMI LAYOUT,BESIDE BMTC MAIN BUS STAND",13.011847,77.544127
"Srinivasa Temple,MAHALAKSHMI LAYOUT,IN FRONT OF BBMP PARK",13.00848,77.544298
"Mahalakshmi Layout Entarence,MAHALAKSHMI LAYOUT,IN FRONT OF SAPTHAGIRI CHOULTRY",13.00782,77.548199
"Rajaji Nagar 1st Block,RAJAJINAGARA,OPPOSITE OF DIACON HOSPITAL",13.003786,77.550061
"Canara Bank Rajaji Nagara,RAJAJINAGARA,BESIDE KULAKARNI CLINIC",13.001134,77.550461
"Navrang Talkies,RAJAJINAGARA 2ND BLOCK,OPPOSITE OF DATTATREYA JEWELLARY",12.996114,77.551468
"Basaveshwara College,RAJAJINAGARA 2ND BLOCK,BESIDE BASAVESHWARA COLLEGE",12.994203,77.552729
"Rajaji Nagara ESI Hospital,RAJAJINAGARA 2ND BLOCK,BESIDE ESI HOSPITAL",12.991707,77.552674
"Old Police Station ESI,RAJAJINAGARA 4TH BLOCK,OPPOSITE OF RAJU ELECTRICALS",12.989926,77.554843
"Nandhini Layout Bus Station,NANDINI LAYOUT,BESIDE BMTC MAIN BUS STAND",13.01139,77.535793
"Saraswathipura,SARASWATHI PURAM MAIN ROAD,IN FRONT OF SATHYA SHRUTHI GANAPAHTI TEMPLE",13.00917,77.538266
Mahalakshmi Layout Cross,13.00839,77.54265
"Vidhanasoudha Layout,VIDHANA SOUDHA LAYOUT,BESIDE HOPCOMS SHOP",13.015661,77.523481
"Laxmidevi Nagar,LAKSHMIDEVI NAGARA,OPPOSITE OF GANESHA TEMPLE",13.015575,77.526184
"Sanjay Gandhi nagar,LAKSHMIDEVI NAGARA,OPPOSITE OF VEENA ENGLISH SCHOOL",13.018722,77.526223
"Sonal Garments,PEENYA INDUSTRIAL AREA,IN FRONT OF SONAL GARMENTS",13.021492,77.527086
"Jn Of Kanteerava Studio,GORAGUNTEPALYA,IN FRONT OF PADMASHREE BAR & RESTAURANT",13.021691,77.535271
"Krishnananda Nagara ,KRISHNANANDA NAGARA,IN FRONT OF POLICE QUARTERS",13.01848,77.540846
"Shankar Nagara,SHANKARA NAGARA,IN FRONT OF SYNDICATE BANK ATM, OPPOSITE OF SYNDICATE BANK",13.015581,77.543964
"Jai Bhuvaneshwari Nagara,NANDINI LAYOUT 4TH BLOCK,IN FRONT OF B.G.S.MEDICALS & GENERAL STORES",13.014791,77.530838
SSVB Bakery,13.01406,77.53276
Ramakrishna Nagara,13.01764,77.53422
Iskcon Temple,13.01156,77.55136
"Mahalakshmi Layout Entarence,RAJAJINAGARA 1ST BLOCK,BESIDE EUREKA FORBES LTD",13.007744,77.548878
Yeshwanthpura TTMC,13.017766,77.556753
"Government Soap Factory,RAJAJINAGARA 1ST BLOCK,BESIDE ORION MALL",13.013091,77.554496
"GKW,RAJAJINAGARA 2ND BLOCK,BESIDE VIVEKANANDA COLLEGE",13.00958,77.554578
"East West College,RAJAJINAGARA 2ND BLOCK,OPPOSITE OF EAST WEST SCHOOL",13.005484,77.556826
"Subramanyanagara,SUBRAMANYA NAGRA,BESIDE RAVI WINE SHOP",13.004753,77.55998
"Railway Gate,SUBRAMANYA NAGARA,OPPOSITE OF DEVATA GENERAL STORE",13.004232,77.561321
"Ramamandira Gayathrinagar,GAYTHRI NAGARA,OPPOSITE OF RAMA MANDIRA TEMPLE",13.001244,77.560763
"Gayathrinagara,GAYTHRI NAGARA,OPPOSITE OF NANJUNDESHWARA ENTERPRISES",12.998952,77.560153
"Bandi Reddy Circle,SRIRAMPURA,BESIDE MUNESHWARA SWAMY TEMPLE",12.991437,77.564073
"Gandhi school,BHASHYAM NAGARA,OPPOSITE OF SANJEEVINI NURSING HOME",12.988666,77.566602
Link Road,12.993803,77.573942
"Laggere Arch,LAGGERE,NEAR SAI BABA TEMPLE",13.00181,77.525328
"Muneshwaranagara Nandini Layout,NANDINI LAYOUT,BESIDE NANDINI LAYOUT SLUM QUARTERS",13.011872,77.528696
Jai Bhuvaneshwari Nagara,13.01487,77.53055
"Rajkumar Samadhi,2ND BLOCK, NANDINI LAYOUT,OPPOSITE OF RAJKUMAR SAMADHI",13.01802,77.531527
"Geleyara Balaga AGB Layout,MAHALAKSHMIPURAM,BESIDE GURU KRUPA DAY CARE CIRCLE",13.005911,77.541147
"Nandini Talkies,MAHALAKSHMIPURAM,OPPOSITE OF UDUPI UPAHARA",13.003235,77.543816
"Kurubarahalli,KURUBARAHALLI,IN FRONT OF CANARA BANK",13.00079,77.536062
"Shankar Mutt,BASAVESHWARANAGARA,IN FRONT OF SWAMY VIVEKANANDA PARK",12.999037,77.541955
"Nagapura,MAHALAKSHMIPURAM,OPPOSITE OF THE BANGLORE CITY CO-OPERATIVE BANK",13.002226,77.544881
"Jai Maruthi Nagara,NANDINI LAYOUT,OPPOSITE OF NIRMALA CLINIC",13.009923,77.532678
Nandhini Layout Quaters,13.010934,77.534536
Goragunte Palya,13.028687,77.539906
"Foreman Training Insititue,GORAGUNTEPALYA,OPPOSITE OF MODERN BREAD FACTORY",13.024745,77.534035
"Ravi Badavane,NANDINI LAYOUT,IN FRONT OF INDIAN CAMBRIDGE SCHOOL",13.006719,77.532565
"Laggere Arch,KEMPE GOWDA LAYOUT,IN FRONT OF ANGALA PARAMESHWARI TEMPLE ARCH",13.002915,77.526135
"Sakammana Badavane,NANDINI LAYOUT,OPPOSITE OF SRI PARVATHANJANEYA TEMPLE",13.008741,77.530515
Ashraya Nagara,13.01632,77.53209
"Rajkumar Samadhi,RAMAKRISHNA NAGARA, NANDINI LAYOUT,IN FRONT OF RAJKUMAR SAMADHI",13.018669,77.532013
Ramakrishna Nagara 2nd Main,13.01656,77.53397
"Laggere Bridge,LAGGERE,BESIDE MATHRU NURSING HOME",13.008273,77.526613
"Basaveshwara Nagara 3rd Stage,SANEGURUVANAHALLI,IN FRONT OF G.K.CONVENT & HIGH SCHOOL",12.989292,77.542503
"Manjunath Nagara,BASAVESHWARANAGARA,IN FRONT OF GANESHA TEMPLE",12.99147,77.542888
"Pushpanjali Talkies,SHIVANAHALLI,NEAR PUSHPANJALI TALKIES",12.991364,77.5461
"Shivanahalli,SHIVANAGARA,IN FRONT OF ARYA CARS",12.989026,77.546848
"Dhobhi Ghatt,RAJAJI NAGARA,OPPOSITE OF BWSSB SERVICE STATION",12.987713,77.550908
"Cauvery Nagar,KAVERINAGARA, KURUBARAHALLI,BESIDE SHIVA TEMPLE, IN FRONT OF JESUSS MURTHI SPECIALITY HOSPITAL",12.999636,77.530602
"Kurubarahalli JC Nagara,J.C.NAGARA, KURUBARAHALLI,BESIDE LIFE CARE PHARMACY",13.007071,77.534568
"Yeshwanthpura Railway Station,YESHAWANTHAPURA,IN FRONT OF YESHAWANTHAPURA RAILWAY STATION",13.021821,77.553187
Yeshwanthpura Market,13.02018,77.55537
"Yeshwanthpura Circle,YESHAWANTHAPURA,BESIDE YESHAWANTHAPURA POLICE STATION",13.017861,77.558144
"Mysore Lamps,MALLESHWARAM,OPPOSITE OF MYSORE LAMPS FACTORY",13.014199,77.560225
"Malleshwaram 18th Cross,MALLESHWARAM,BESIDE RATHNAM COMPLEX & BABA BED SHOP",13.009224,77.563123
"Malleshwaram 13th Cross,MALLESHWARAM,BESIDE JANATHA CO-OPERATIVE BANK",13.007277,77.564278
"Malleshwaram 8th Cross,MALLESHWARAM,BESIDE R.V.APARTMENTS & PUSHPAYANI MEDICALS",13.000265,77.565477
MDBlock,12.99434,77.56927
Mohan Kumar Nagara,13.03052,77.54934
Chowdeshwari Bus Stop,13.03268,77.55393
"Kamalanagar BEML layout,BASAVESHWARANAGARA,IN FRONT OF CANARA BANK ATM",12.99278,77.530629
"Old Bus Stop,BASAVESHWARANAGARA,BESIDE PODAR JUMBO KIDS NURSING SCHOOL",12.992245,77.534771
"Kamalanagar 8th Main,BASAVESHWARANAGARA,IN FRONT OF MALNAD SUGGI HOTEL",12.992358,77.5386
"Kamalanagar Water Tank,BASAVESHWARANAGARA,OPPOSITE OF AXIS BANK",12.995735,77.539887
"Shankararnag Bus Stop,KAMALANAGARA,BESIDE GOVT SCHOOL AND BMTC BUS STAND",12.994777,77.526707
"Patalappa Layout,NAGASHETTYHALLI,BESIDE APARTMENTS",13.046407,77.572604
"Rajmahal Vilas 2nd Stage,NAGASHETTYHALLI,AT RESIDENTIAL AREA",13.042566,77.566697
"Devasandra Chikkamaranahalli,DEVASANDRA,BESIDE KARNATAKA POWER TRANSMISSION CORPORATION LIMITED",13.036277,77.566737
"ITI Layout Dollars colony,AGS LAYOUT,BESIDE SAGAR CAFE",13.033844,77.568848
"MS Ramaiah Hospital New BEL Road,DEVASANDRA,BESIDE OPEN AREA",13.026943,77.571874
"Sadashivanagara Police Station,SADASHIVA NAGARA,BESIDE OPEN AREA",13.01521,77.572832
"Sadhashivanagar,SADASHIVA NAGARA,BESIDE GIRI DENTAL CLINIC",13.00857,77.580286
"Bashayam Circle Sadashiva Nagara,SADASHIVA NAGARA,BESIDE SANKEY APARTMENTS",13.006151,77.579444
"RM Guttahalli,PALACE GUTTAHALLI,BESIDE OPEN AREA",12.999724,77.584297
Anandanagar,13.03297,77.59131
Veterinary College,13.030021,77.587012
"CBI Office,GANGANAGARA,BESIDE RITI JEWELLERY",13.026833,77.586494
"Vasanthappa Block,GANGANAGARA,IN FRONT OF RADHAKRISHNA ENGLISH SCHOOL",13.02631,77.589099
"RTNagara Police Station,RT NAGARA,BESIDE POLICE STATION",13.024358,77.592839
"R T Nagara Post Office,RT NAGARA,OPPOSITE OF SYNDICATE BANK",13.022045,77.59259
"Rahmath Nagara,RT NAGARA POST OFFICE,OPPOSITE OF NANDINI HOTEL",13.017441,77.59185
"Matada Halli,RT NAGARA POST OFFICE,BESIDE SHRI RADHAKRISHNA THEATER",13.013597,77.593661
"CIL,JC NAGARA, RT NAGARA,IN FRONT OF KARANTH ENCLAVE",13.011718,77.593356
TV Tower Munireddy palya,13.009178,77.591232
"JC Nagara,JC NAGARA,BESIDE POST OFFICE",13.006799,77.592745
"Jayamahal,JAYAMAHAL,BESIDE SAI SAGAR HOTEL",13.001861,77.594467
"Kaval Byrasandra,RT NAGAR POST,OPPOSITE OF ANJANEYA TEMPLE",13.01985,77.607744
"P&T Quarters,KAVALABYRASANDRA, RT NAGARA POST,OPPOSITE OF POST & TELECOM QUARTERS",13.021458,77.604635
"Pushpanjali Talkies,RT NAGARA,IN FRONT OF LAL BAHADUR SHASTRI GOVT FIRST GRADE COLLEGE",13.022045,77.602436
"Dinnur,RT NAGARA,IN FRONT OF ANUGRAHA WINES",13.023975,77.598672
"Pillanna Garden,PILLANNA GARDEN,OPPOSITE OF SIDDHI VINAYAKA TEMPLE",13.011986,77.617643
"Periyar Nagara Circle,BILAL NAGARA,IN FRONT OF KBS FAIR PRICE",13.010467,77.615152
"Canara Bank Hebbala,FRAZER TOWN,IN FRONT OF V.R.SHABBIR AHMED STORES",13.006642,77.612546
Doddi,13.00237,77.612186
"Frazer Twon,FRAZER TOWN,OPPOSITE OF ST ANTHONYS CHURCH",13.001155,77.612181
Coles Park,12.995445,77.608402
"Bamboo Bazaar,SHIVAJI NAGARA,BESIDE PRESTIGE BUILDING DEMOLISHER",12.991636,77.604606
"Sulthan Palya,RT NAGARA POST,OPPOSITE OF SEA HORSE AQUARIUM",13.026599,77.604045
"Pushpanjali Talkies,SULTHANPALYA, RT NAGARA,OPPOSITE OF LAL BAHADUR SHASTRI GOVT FIRST GRADE COLLEGE",13.022111,77.602627
"Manorayana Palya,MANORAYANPALYA, RT NAGARA,NEAR DODDAMMA DEVI TEMPLE",13.028663,77.60185
"Sulthan Palya,RT NAGARA POST,IN FRONT OF SHIVA SWEETS & BAKERY",13.026588,77.603909
Chinnappana Garden,13.00289,77.60334
"Marappa Garden,LAST STOP",13.00462,77.59976
"YMCA Nandi Durga Road,BENSON TOWN,BESIDE ANJANEYA TEMPLE",13.000546,77.599671
"Canara Bank,BENSON TOWN,BESIDE MASJID-E-KHADIRA",12.995455,77.601335
"Jeevanahalli,OPPOSITE OF VETERINARY HOSPITAL",12.994897,77.628815
"Coxtown Water Tank,COX TOWN,IN FRONT OF MEG TRAINING AREA",12.993794,77.626633
"Coxtown Circle,COX TOWN,IN FRONT OF BALAJI WINES",12.996216,77.621564
Shivajinagar Bus Station,12.98368,77.603569
"Domlur TTMC Bus Stand,DOMLURU, HAL,BESIDE T.T.M.C.",12.961543,77.638159
"Jeevan Bhimanagara Bus stand,HAL 3RD STAGE,OPPOSITE OF LIC OF INDIA",12.965699,77.657876
"Vivekanagara,VIVEKA NAGARA,BESIDE BUS STAND",12.954121,77.622713
Vannarapete,12.95619,77.620895
"ASC Center,AUSTIN TOWN,BESIDE QUARTERS",12.962326,77.618735
"Austin Town,AUSTIN TOWN,BESIDE KALIYAMMA TEMPLE",12.961414,77.614374
"Philomena Hospital,AUSTIN TOWN,OPPOSITE OF S.M.PERLE",12.964595,77.61014
Boldwin Girls High School,12.965535,77.602793
"Nanjappa Circle,SHANTHI NAGARA,OPPOSTIE OF KARNATAKA HOUSING ASSOCIATION",12.96078,77.600506
"Akkithimmana halli,SHANTHI NAGARA,IN FORNT OF METRO POLES",12.96186,77.597786
"Subbaiah Circle,BESIDE SEETHA LAKSHMI TOWER, KSBCL",12.962443,77.590994
"Poornima Talkies,NEW MISSION ROAD,BESIDE JAYALAKSHMI BAKARY",12.96095,77.58773
"Srinivagilu,NATTA GATE,BESIDE SRI GOLDEN BAR & RESTAURANT",12.938163,77.632806
"Ejipura,EJIPURA,BESIDE ROSEWAY LIQUORS",12.946664,77.628698
Bakery Ejipura,12.949795,77.62639
"Ejipura Market,VIVEKA NAGARA,BESIDE SHINE BAKERY",12.950574,77.623763
"Ravi Tent,VIVEKA NAGARA,BESIDE VIVEKA NAGARA POLICE STATION",12.95143,77.62244
"Karnataka Housing Complex,KORAMANGALA,IN FRONT OF PARK",12.945479,77.62287
NGV Gate,12.94931,77.62027
NDDA Koramangala,12.94261,77.622475
Rajendranagar,12.944966,77.619643
"Neela sandra,NEELASANDRA,BESIDE BDA COMPLEX",12.957692,77.614344
"Neelasandra Rose Garden,ROSE GARDEN,BESIDE ARYA S L BANK",12.953876,77.616998
"Neelasandra,AUSTIN TOWN,BESIDE KAVYASAGARA",12.958226,77.61478
"Gajendra Nagara,ANEPALYA ADUGODI POST,OPPOSITE OF SUNFORD JAPAN ELECTRONIC PRIVATE LIMITED",12.951596,77.607759
"Jaibheemanagara,BTM LAYOUT 1ST STAGE,IN FRONT OF VIGHNESH DEVELOPERS",12.919395,77.615101
"GANGOTHRI CIRCLE,BTM LAYOUT 1ST STAGE,IN FRONT OF GANGOTHRI BUS STAND",12.919551,77.612885
"Tavare Kere,THAVAREKERE,OPPOSITE OF MYTHRI SUPER MARKET",12.922193,77.610322
"Mori,THAVAREKERE,OPPOSITE OF MURALI PLY WOOD",12.925074,77.608741
"Chikka aAudugodi,CHIKKA ADUGODI,OPPOSITE OF DODDAMMADEVI TEMPLE",12.928736,77.609319
"Suddugunte Palya,SADGUNTE PALYA,OPPOSITE OF ORACLE COMPANY",12.931068,77.609784
"Old Gurrappana Palya,GURUPPANAPALYA,BESIDE MATHA AVALAMMANA TEMPLE",12.92069,77.60533
Adugodi Police Quarters,12.938945,77.609729
"Audugodi,ADUGODI,BESIDE MAICO PLAY GROUND",12.94385,77.605941
"MICO Gate,OPPOSITE OF MANOKAMAN CERAMIC",12.944257,77.603318
"Wilson Garden 14th cross,WILSON GARDEN,IN FRONT OF SAGAR PHARM",12.946546,77.600253
"Wilson Garden 10th Cross,WILSON GARDEN,IN FRONT OF G.S.POER SYSTEM",12.94735,77.598284
"Wilson Garden police Station,WILSON GARDEN,BESIDE KITTUR RANI CHANNAMMA PARKLAKKASANDRA",12.951378,77.595192
"Jaibheemanagara,BTM LAYOUT 1ST STAGE,BESIDE THE BTM SOWHARDH CO-OPERATIVE LIMITED",12.91949,77.615115
"Karnataka Housing Complex,KORAMANGALA,JUDICIAL BLOCK",12.945309,77.622719
"Chandra Layout,CHANDRA LAYOUT,IN FRONT OF GURU SAGAR",12.9583,77.525971
BCC Layout,12.95141,77.52994
Jn Of BCC Layout,12.95483,77.53493
"NRColony,N.R.COLONY,BESIDE N.R.COLONY LIBRARY",12.938022,77.569845
"KAVERI NAGARA,Kamala Nagara,Near Market",12.999577,77.530624
"Shankar Mutt,BASAVESHWARANAGARA,BESIDE HONEY-B BAKERY, INDIAN HEALTH CENTER",12.99884,77.54172
"Sulthan Palya,SULTHANPALYA, RT NAGARA,IN FRONT OF STATE BANK OF INDIA",13.024732,77.603453
" Hampinagara 7th Main,VIJAYANAGARA,BESIDE MRUDULA MEDICALS",12.9621,77.537595
"Central Silk Board,BTM LAYOUT MADIWALA,OPPOSITE OF CENTRAL SILK BOARD",12.91708,77.621711
"AGS Layout,A.G.S. LAYOUT,IN FRONT OF SRI M.VISHWESHWARAIAH PARK",12.913799,77.537567
"JP Nagara 3rd Phase,JP NAGARA 3RD PHASE,BESIDE COLLABERA",12.907031,77.59948
Yeshwanthpur TTMC,13.017871,77.556565
"Krishnarajendra Market,KR MARKET",12.960407,77.576347
"Makkala Koota,KEMPEGOWDA HOSPITAL",12.956338,77.573858
Mahila samaja,12.95353,77.57386
National College,12.948886,77.573826
Basavanagudi Police Station,12.941591,77.573918
"Gunasheela Hospital,BASAVANAGUDI,OPPOSITE OF SOWMYA SPRINGS",12.9406,77.576045
Southend Circle,12.935685,77.5802
"Jayanagara Bus Stand,JAYANAGARA 4TH BLOCK,BESIDE JAIN TEMPLE",12.927676,77.583583
"Telephone Exchange,JAYANAGARA 5TH BLOCK,SAMSKRUTI BANQUET HALL",12.922573,77.583794
"Jayanagara 38th Cross,JAYANAGARA 5TH BLOCK,OPPOSITE OF NEW AGE STYLES",12.920994,77.583798
"Jayanagara 5th Block,JAYANAGARA 5TH BLOCK,BESIDE PANASONIC SHOW ROOM",12.918541,77.583736
"Marenahalli JPnagar Road,JP NAGARA 1ST PHASE,BESIDE VIVEKS SHOW ROOM",12.914832,77.585868
"RVDental College,JP NAGARA 1ST PHASE,BESIDE SAI AUTO WORLD",12.909796,77.5858
"JP Nagara 15th Cross,JP NAGARA 2ND PHASE,OPPOSITE OF CELL CITY",12.907017,77.585818
"Puttenahalli Jp nagar,J.P.NAGARA 7TH PHASE,OPPOSITE OF BIG MARKET",12.897075,77.586183
"Brigade Millenium,R.B.I.LAYOUT,OPPOSITE OF APOLLO PHARMACY",12.892065,77.581936
"RBI Layout,R.B.I.LAYOUT,OPPOSITE OF SOMESHWARA SABHA BHAVANA",12.888195,77.581994
"Gowrava nagar,GOWRAVA NAGARA,OPPOSITE OF H.D.F.C.BANK",12.884744,77.582698
"Navodaya Nagara,NAVODAYA NAGARA,IN FRONT OF VISHWAS SHOPPING CENTRE",12.881492,77.583794
"Kothnuru Dinne,J.P.NAGARA 8TH PHASE,OPPOSITE OF GANESHA TEMPLE",12.877478,77.584021
"BK Circle,J.P.NAGARA 8TH PHASE,OPPOSITE OF UNIVERSAL GRANITES",12.870831,77.583283
"Surabhi,J.P.NAGARA 8TH PHASE, SURABHI NAGARA,OPPOSITE OF VINAYAKA TIMBERS",12.867831,77.581918
"Jambusavari dinne,J.P.NAGARA 8TH PHASE,IN FRONT OF GOVERNMENT HIGHER PRIMARY SCHOOL",12.865745,77.581234
Sompura,12.877657,77.496599
"GATTIGERE PALYA,GATTIGERE PALYA,OPPOSITE OF VINAYAKA ENTERPRISES",12.881696,77.501347
Chikkegowdana Palya,12.878642,77.514936
"Ganigara Palya,GANIGARA PALYA,OPPOSITE OF PAYAL MEDICALS",12.876084,77.533202
Manjunatha Kalyana Mantapa,12.87495,77.53718
"Biana Palya,BAYANA PALYA,IN FRONT OF R.C.J. MACHINERIES PVT.LTD",12.874192,77.540634
Raghuvanahalli Cross,12.881065,77.546222
Gubbalala Gate,12.884307,77.551518
Doddakallasandra,12.885601,77.555733
Konanakunte Cross Kanakapura Road,12.890707,77.564599
Metro konanakunte,12.894149,77.568306
Yelachenahalli,12.898119,77.5718
Jaraganahalli Cross,12.900549,77.573015
Sarakki,12.909462,77.572855
"Kambipura,KAMBIPURA,IN FRONT OF GOVERNMENT PRIMARY SCHOOL",12.871961,77.461805
"Jandemara,KAMBIPURA,OPPOSITE MEERSAB PROVISION STORE",12.874622,77.461247
"Madarasa school,KAMBIPURA,IN FRONT OF MADARASA SCHOOL",12.880565,77.459336
"St Bentic school,ANCHEPALYA,OPPOSITE OF ST.BENEDICTS ENGLISH SCHOOL",12.887116,77.458748
"Anche Palya,ANCHEPALYA,Mysore Road",12.892401,77.457446
"Rajarajeshwari Medical College,ANCHEPALYA MYSORE ROAD,IN FRONT OF RAJA RAJESWARI MEDICAL COLLEGE AND HOSPITAL",12.896474,77.460783
"Basavanagara,MYSORE ROAD CHECK POST(BASAVESHWARA NAGARA),OPPOSITE OF VISHWA VOKKALIGARA MAHA SAMSTHANA MUTT",12.900966,77.467035
"Nice Road Junction Kengeri,KENGERI,OPPOSITE OF BMTC DEPOT NO 12",12.904775,77.470655
"BMTC Depot-12 Gate Kengeri,KENGERI,OPPOSITE OF IMAC INDIA BODY BUILD LTD",12.907137,77.474218
"Doddabele,DODDABELE,BESIDE GOVT MIDDLE SCHOOL AND ANJANEYA TEMPLE",12.888792,77.477472
"Kengeri RWB Gate,KENGERI,IN FRONT OF KSRTC REGIONAL WORK SHOP, KENGERI",12.9043,77.475699
"Kengeri Bandemata Badavane,Kengeri Satelite Town,Radient Enclave",12.912867,77.473437
"Beedi Karmikara Colony,Kengeri Satelite Town,CDD Society",12.91916,77.472305
"Beedi Karmikara Colony Gate,BEEDI COLONY,BESIDE OPEN AREA",12.922343,77.474879
"Robin Talkies,KENGERI UPANAGARA,OPPOSITE OF NEW PRIYANKA BAKERY",12.916,77.479919
"Jn of Kommaghatta Road,KENGERI UPANAGARA,OPPOSITE OF ASHIRWAD DENTAL CLINIC",12.914757,77.48124
Ramasandra,12.9455,77.46799
"Doddabasthi,Open Area",12.942197,77.479221
"Chikkanahalli,Petty shop",12.941391,77.479184
"New Bhyrahalli cross,BEEDI COLONY,TAVAREKERE,Magadi Road",12.923643,77.472954
"Hunisemarada Palya,BESIDE OPEN AREA",12.913501,77.450467
"New Byrohalli,HOSA BYROHALLI,OPPOSITE OF GANGAMMA TEMPLE",12.919431,77.455937
Satellite Club,12.92376,77.47254
"Bettana Palya,BETTANAPALYA,IN FRONT OF AYYAPPA & SHANIMAHATHMA TEMPLE",12.911992,77.443122
"Hosa Palya,HOSAPALYA,OPPOSITE OF SAI RAM ENTERPRISES",12.910658,77.450122
"Shiridi Sai Temple,BESIDE OPEN AREA",12.913733,77.450504
"Archakara Badavane,OLD BYROHALLI,IN FRONT OF LAKSHMINARASIMHA TEMPLE",12.918838,77.452542
Tavarekere Magadi Road,12.965983,77.400269
Manjunath Nagara,12.96434,77.40377
"Dodda Aladamara Cross,TAVAREKERE,BESIDE OPEN AREA",12.963882,77.407273
"Puttaiahna Palya,IN FRONT OF MILK DAIRY",12.956591,77.410748
"Halubhavi Palya,GULAGANJANAHALLI,OPPOSITE OF GOVT. SCHOOL",12.942124,77.415857
"Dasegowdana Palya,OPPOSITE OF MARAMMA TEMPLE",12.936882,77.418948
"Krishna Sagar Hosakerahalli,KRISHNA SAGARA,OPPOSITE OF RAJALAKSHMI WINES",12.938487,77.426432
"Hosakere,SULIKERE,IN FRONT OF SHANI MAHATHAMA TEMPLE",12.934704,77.431843
"Sulikere,YELACHAGUPPE,BESIDE OPEN AREA",12.934813,77.446654
"Byrohalli Cross,SULIKERE,BESIDE OPEN AREA",12.934404,77.448209
"Banglow Sulikere Mysore Road,SULIKERE,IN FRONT OF ASHWATHA KATTE",12.933106,77.454242
"Ramasandra Cross,KOMMAGATTA,BESIDE OPEN AREA",12.932686,77.461574
"Kommagatta,KOMMAGATTA,IN FRONT OF LAKE",12.930078,77.465094
"Nagadevanahalli RR Temple,NAGADEVANAHALLI,BESIDE SRI KRUPA EDUCATION CENTER & SS TILES SANITARY WARE",12.935461,77.49235
Shirke KHB Quarters,12.932039,77.487822
"Hoysala Circle Kengeri Satellite Town,KENGERI UPANAGARA",12.924239,77.485132
Kengeri Satalite Town Society,12.923696,77.484934
Jnana bharthi layout,12.931291,77.489834
"Sulikere,SULIKERE,IN FRONT OF GOVERNMENT SCHOOL",12.938584,77.448036
Dhananayakanahalli,12.942964,77.476662
Maruthi Nagara,12.937549,77.478891
"Chikkabasthi,Open Area",12.94216,77.47979
"Sonnenahalli,Open Area",12.942144,77.481018
"Sonnenahalli Bridge,Open Area",12.942108,77.483357
"Bhuvaneshwari Nagara,Open Area",12.942531,77.486817
Kenchapura Cross,12.94159,77.49314
"Mariyappana Palya,MARIYAPPANA PALYA,BESIDE DODDAMMA TEMPLE",12.945286,77.495368
"PVP Shool,JNANAGANGA NAGARA,OPPOSITE OF P.V.P.SCHOOL",12.948321,77.496952
"University Quarters,BANGALORE UNIVERSITY,OPPOSITE OF UNIVERSITY QUARTERS, NEAR GANESH TEMPLE",12.951697,77.50037
Upkar Residency Layout,12.959032,77.487654
"Mallathahalli,MALLATHAHALLI,BESIDE BHAGAVAN BUDDA HOMEOPATHIC MEDICAL COLLEGE",12.958214,77.503323
"Nrupatunga Nagar,N.G.E.F.LAYOUT,OPPOSITE OF TWINKLERS VIDYANIKETHAN",12.958192,77.509922
"Nagarabhavi Village,NAGARABHAVI VILLAGE,OPPOSITE OF BAKE LAND BAKERY",12.957021,77.515872
"BGS Health City,B.G.S. HOSPITAL,IN FRONT OF B.G.S.GLOBAL HOSPITAL",12.902614,77.498022
"Indo American Hybrid Form,OMKAR LAYOUT,OPPOSITE OF CHINMAYI COMPLEX",12.90474,77.504775
"Srinivasapura gate,SRINIVASAPURA,IN FRONT OF SATISH BIKE CENTRE GARAGE",12.904311,77.512357
"Glass House,SRINIVASAPURA,BESIDE SATHYA SAI TENT HOUSE",12.906809,77.512196
"Bangalore Children Hospital,KANDASWAMY LAYOUT, RAJESHWARI NAGARA,OPPOSITE OF SRI VINAYAKA ENTERPRISES",12.909775,77.513375
"Double Road,SHANKARAPPA LAYOUT,BESIDE OPEN AREA",12.915939,77.51337
"Pattanagere,PATTANAGERE,OPPOSITE OF L.G.GODOWN",12.919456,77.511588
"Bakery Pattanagere,HALAGE VADERAHALLI,IN FRONT OF GURU HARDWARE STORES",12.92002,77.513868
"Halage Vaderahalli,HALAGE VADERAHALLI,OPPOSITE OF ADI SHAKTHI MARAMMA TEMPLE",12.9225,77.514362
"Srinivasapura Colony,SRINIVASAPURA,IN FRONT OF NANDHINI MILK PARLOUR",12.903822,77.508485
"BEML Layout 5th Stage,B.E.M.L. 5TH STAGE,BESIDE B.M.T.C. MAIN BUS STAND",12.906692,77.521602
"BHEL Layout ,PATTANAGERE, B.H.E.L. LAYOUT,OPPOSITE OF NANJUNDESHWARA ELECTRICALS",12.917183,77.511297
BEML Layout Cross,12.915577,77.513734
"BGS Hospital,NEAR ABHIMAN STUDIO,BESIDE B.G.S.ARCH",12.906913,77.499374
"BHEL Concrode Layout,CONCORDE LAYOUT,BESIDE JEEVAN ENTERPRISES",12.908212,77.50941
"Krishna Garden BHEL Layout,KRISHNA GARDEN,BESIDE SRI KRISHNA GARDEN PARK",12.913059,77.506775
"BHEL Layout Cross,B.H.E.L. LAYOUT,BESIDE OM SHAKTHI CANTEEN",12.915794,77.510799
"Pattanagere,PATTANAGERE,BESIDE IYENGAR BAKERY",12.919883,77.511922
"Kariyana Palya,KARIYANAPALYA,BESIDE MARIYAMMA TEMPLE",12.891806,77.52125
"Ganakkal,GANAKALLU,BESIDE OPEN AREA",12.897952,77.512146
"Bangarappa Nagara,BANGARAPPA NAGARA,IN FRONT OF GLOBAL ACADEMY TECHNOLOGY",12.924843,77.526602
"Devadiga Soudha,RAJESHWARI NAGARA IDEAL HOMES TOWNSHIP,IN FRONT OF MONISH CORNER HOTEL",12.926972,77.520079
"Javaregowdanagara Cross,RAJA RAJESHWARI NAGARA,IN FRONT OF JNANAKSHI COMPLEX, MATHURA SHREE TRUSTS & TRAVELLS",12.929864,77.52078
"BHEL Layout Maramma Temple,PATTANAGERE VILLAGE,IN FRONT OF MARAMMA TEMPLE",12.921874,77.508826
"Billa Kempanahalli,BILLA KEMPANAHALLI,IN FRONT OF GOVERNMENT PRIMARY SCHOOL",12.810243,77.406589
"Kadumane Hotel,KADUMANE,OPPOSITE OF SAROVARA BAR & RESTAURANT",12.815621,77.40735
"Lakshmisagar Gate,LAKSHMISAGARA,BEHIND BIG COMPOUND",12.822853,77.410682
"Veeranjaneya Temple,HANUMANTHA NAGARA,NEAR KOTHI ANJANEYA TEMPLE",12.829629,77.412201
"Manchanayakanahalli,MANCHANAYAKANAHALLI,IN FRONT OF ANANYA LUNCH HOME",12.834534,77.414444
"Sheshagiri Halli Mysore Road,SHESHAGIRIHALLI,IN FRONT OF MUTHURAYA SWAMY TEMPLE",12.843796,77.421298
"Hejjala Cross,HEJJALA,OPPOSITE OF SONA VALLIAPPA PUBLIC SCHOOL",12.855491,77.426816
"Kanaminaki Colony,KANIMINIKE,IN FRONT OF MANOJ PROVISION STORE",12.858213,77.429006
"Kanminike,KANIMINIKE,IN FRONT OF GOVERNMENT PRIMARY SCHOOL",12.863189,77.433622
Swaminarayana Gurukul,12.86666,77.43666
"Pepsi Gate,KUMBALAGUDU,OPPOSITE OF PEPSI SOFT DRINKS FACTORY",12.872544,77.439527
"Kumbalagodu,KUMBALAGUDU,IN FRONT OF GOVERNMENT SCHOOL",12.87943,77.445971
"Ramohalli Cross,KUMBALAGUDU,IN FRONT OF RAJARAJESHWARI COLLEGE OF ENGINEERING",12.886214,77.450382
"Thimmappana Palya,IN FRONT OF BYTARAYA TEMPLE",12.841659,77.392299
"Jadenahalli,BESIDE RESIDENTIAL AREA",12.839588,77.396321
Hakki Pikki Colony Cross,12.83934,77.39902
"Wonderla Park,OPPOSITE OF WONDERLA GATE",12.8383,77.402699
"School,OPPOSITE OF J.U.INDUSTRIAL TRAINING INSTITUTE",12.83655,77.410706
"Vajara Halli,VAJARAHALLI,OPPOSITE OF ANJANEYA SWAMY TEMPLE",12.823229,77.391315
"Channegowdana Doddi,CHANNE GOWDANA DODDI,BESIDE GOVERNMENT PRIMARY SCHOOL",12.806805,77.428742
"Talaguppe,THALAKUPPE,NEAR PARVATHI TEMPLE",12.811634,77.433335
"Hampapura,HAMPAPURA,IN FRONT OF GOVERNMENT PRIMARY SCHOOL",12.83064,77.428856
"Shanumangala,SHYANUMANGALA,IN FRONT OF ANGANAVADI",12.794906,77.431464
"Gollarapalya,GOLLARAPALYA,OPPOSITE OF GOVERNMENT PRIMARY SCHOOL",12.801515,77.425107
Hakki Pikki Colony,12.84457,77.39997
"Kempaiahanapalya,KEMPAIAHANA PALYA,BESIDE GOVT.HIGHER PRIMARY SCHOOL",12.720291,77.429375
"Karenahalli,IN FRONT OF ANJANEYA TEMPLE",12.818139,77.365744
"Avaragere Cross,BIDADI,IN FRONT OF S.L.N.PUBLIC SCHOOL",12.80156,77.384209
Bidadi,12.796705,77.385581
"Parasanapalya,IN FRONT OF ASHWATHA KATTE",12.799201,77.437479
"Bychohalli,OPPOSITE OF SRI RAMA TEMPLE",12.806344,77.43813
"Thippuru,OPPOSITE OF PRIMARY SCHOOL",12.815297,77.441223
"Lingapura,NEAR ANGANAVADI KENDRA",12.821587,77.444132
"Seegehalli Cross,BESIDE OPEN AREA(HUNASEMARA)",12.825491,77.449298
"Gonipura,GONIPURA,BESIDE GOVERNMENT SCHOOL",12.832532,77.451038
"Gollahalli,K.GOLLAHALLI,NEAR MANDALA PANCHAYAT OFFICE",12.843144,77.451412
"Eradu kamba Gonipura,K.GOLLAHALLI,BESIDE OPEN AREA",12.849124,77.451267
"Nalku kamba,GUDIMAVU VILLAGE,BESIDE SRI LAKSHMI PROVISION STORE",12.855737,77.452691
"Devagere Cross,DEVAGERE CROSS,IN FRONT OF THARUN IYENGAR BAKERY",12.864307,77.456947
"Thagachuguppe,TAGACHAGUPPE,OPPOSITE OF SRI MANJUNATH STORES",12.86677,77.455019
"Anchipura Colony,ANCHIPURA COLONY,IN FRONT OF GOVERNMENT MIDDLE SCHOOL",12.767349,77.438936
"Anchipura,ANCHIPURA,IN FRONT OF MILK DAIRY",12.770258,77.431927
"Jogana Palya,JOGANAPALYA,OPPOSITE OF GOVERNMENT PRIMARY SCHOOL",12.781133,77.439205
"Anchipura Cross,CHIKKA KUNTANAHALLI,NEAR ASHWATHA KATTE",12.790083,77.441128
"Shanumangala Cross,IN FRONT OF VEERANJANEYA TEMPLE",12.792116,77.438607
"Byramangala,BYRAMANGALA,BESIDE SRI VENKATESWARA BAKERY AND SWEETS",12.74881,77.42419
"Kenchanaguppe,KENCHANAKUPPE,IN FRONT OF SAMUDAYA BHAVANA",12.795486,77.375215
"Bidadi,BIDADI,IN FRONT OF KARNATAKA BANK A.T.M",12.793901,77.381266
"Thoredoddi,THORE DODDI,IN FRONT OF GOVT. HOSPITAL",12.757421,77.397463
"Ittamadu,ITTAMADU,OPPOSITE OF MILK DAIRY",12.75665,77.404687
"Bananduru,BANANDURU,IN FRONT OF HUCHAMMA TEMPLE",12.776844,77.397885
"M Gopahalli,M.GOPALHALLI,IN FRONT OF MILK DAIRY",12.728535,77.402654
"Ramanahalli,RAMANAHALLI,OPPOSITE OF RESIDENTIAL AREA",12.741243,77.401598
"Annahalli,ANNAHALLI,IN FRONT OF GOVT. HIGH SCHOOL & COLLEGE",12.699575,77.384465
"Dombaradoddi,DOMBARA DODDI,OPPOSITE OF PREM MEDICALS",12.70191,77.393167
"Kadasikoppa,KADASIKOPPA,IN FRONT OF ASHWATHA KATTE",12.693073,77.406595
"Kolliganahalli,KOLIGANAHALLI,IN FRONT OF ANJANEYA SWAMY TEMPLE",12.71186,77.406901
"Manchegowdana palya,MANCHEGOWDANA PALYA,IN FRONT OF MARAMMA TEMPLE",12.724401,77.380836
"Seebakatte,MANCHEGOWDANA PALYA,OPPOSITE OF BASAVESHWARA TEMPLE",12.728876,77.381627
"Chikka Arasanahalli,CHIKKA ARASANAHALLI,IN FRONT OF ANGANAVADI & RAMA TEMPLE",12.733778,77.381118
"Uragahalli Bidadi,URAGAHALLI,OPPOSITE OF MARAMMA & ANJANEYA TEMPLE",12.743407,77.377213
"Heggada gere,HEGGADAGERE,IN FRONT OF HOTEL",12.76164,77.376515
"Beemanakuppe,BEEMANA KUPPE,IN FRONT OF CHENNIGARAYA SWAMY TEMPLE",12.903886,77.438532
"Bheemanakuppe Cross,BEEMANA KUPPE,BESIDE OPEN AREA",12.894715,77.436811
"Subbarayappana Palya Cross,GERUPALYA,OPPOSITE OF FAURECIA PRIVATE LIMITED",12.88923,77.437845
"Gerupalya,GERUPALYA,OPPOSITE OF LAKSHMAN PROVISION STORE",12.887743,77.444375
"Ramohalli Cross,KUMBALAGUDU,IN FRONT OF RAJARAJESHWARI DENTAL COLLEGE & HOSPITAL",12.887171,77.451136
"Uddandalli ,UDDANDAHALLI,OPPOSITE OF FLAG MAST",12.886016,77.383781
"Lakshmipura,LAKSHMIPURA,IN FRONT OF RESIDENTIAL AREA",12.892153,77.391926
"Rampura,RAMPURA,OPPOSITE OF WATER TANK",12.890302,77.398742
"Lakkayyanapalya,LAKKAYYANAPALYA,IN FRONT OF GOVERNMENT PRIMARY SCHOOL",12.889462,77.402509
"koluru,KOLURU,IN FRONT OF BASAVANNA TEMPLE",12.891098,77.412946
"Kundalpura,OPPOSITE OF WATER TANK",12.895179,77.415344
"Chikkaluru Cross,CHIKKALLURU,IN FRONT OF FASHION TAILORS",12.891799,77.421831
"Huluvenahalli,OPPOSITE OF MILK DAIRY",12.919553,77.365493
"Huluvenahalli Cross,BESIDE OPEN AREA",12.919777,77.368652
"Chandrappa Circle,IN FRONT OF WATER OVER HEAD TANK",12.91049,77.369952
"Chandrappa Circle Aralimara,CHUNCHANA KUPPE,IN FRONT OF GOVT. SCHOOL",12.910213,77.373631
"Thavarekatte,CHUNCHANA KUPPE,BESIDE OPEN AREA",12.911489,77.382902
"Chunchanakuppe,CHUNCHANAKUPPE,IN FRONT OF RENUKA STORE",12.910398,77.386399
"Dodda Alada Mara,DODDA ALADAMARA ROAD,OPPOSITE OF DODDALADAMARA",12.910088,77.395374
"Kethohalli ,KETHOHALLI,IN FRONT OF GOVERNMENT FAIR PRICE DEPOT",12.907316,77.403591
"Ramohalli,RAMOHALLI,IN FRONT OF GOVERNMENT SCHOOL",12.90735,77.418205
"Ashrama Ramohalli,RAMOHALLI,IN FRONT OF MYTHREYI GURUKULA ASHRAMA",12.906412,77.428748
"Vinayaka Nagara,RAMOHALLI,OPPOSITE OF GANESHA, ANJANEYA TEMPLE",12.9029,77.430253
"MGM School,RAMOHALLI,IN FRONT OF SHRINIDHI LODGE",12.897524,77.432765
"Chikkanahalli,IN FRONT OF PANCHAYATH OFFICE",12.881337,77.35523
"Pachepalya Cross,BESIDE OPEN AREA",12.885433,77.358305
"Gollahalli,OPPOSITE OF GOVT. SCHOOL",12.893857,77.361567
"Suliwara Cross,IN FRONT OF I.S.R.O. CENTER",12.902231,77.367351
"Malligondanahalli,MALIGONDANAHALLI,IN FRONT OF ANJANEYA SWAMY TEMPLE",12.916097,77.415421
"Basammanahalli,BASAMMANAHALLI,IN FRONT OF GOVERNMENT SCHOOL",12.875167,77.353
"Chikkanahalli,IN FRONT OF MARAMMA TEMPLE",12.881407,77.355117
"Alammana Palya,BESIDE OPEN AREA",12.936388,77.364964
"Madapatna,BESIDE OPEN AREA",12.936616,77.372934
"Bande Inorapalya,BESIDE OPEN AREA",12.92482,77.36932
"Hunnigere,OPPOSITE OF RESIDENCE",12.922943,77.368776
"Doddamaranahalli,IN FRONT OF ANJANEYA SWAMI TEMPLE",12.930484,77.38286
"Muddana Palya,OPPOSITE OF REVANA SIDDESHWARA PROVISION STORE",12.919178,77.382185
"Byalalu Janatha Colony,BYALALU,OPPOSITE OF GOVERNMENT MIDDLE SCHOOL",12.894108,77.377919
"Byalalu,BYALALU,BESIDE OPEN AREA",12.887239,77.376607
"Chandrappa Circle,IN FRONT OF RAJA RAJESHWARI PROVISION STORES",12.910277,77.369544
"Byalalu,BYALALU,OPPOSITE OF ANJANEYA TEMPLE",12.891808,77.376254
"CK Thandya,C.K.THANDYA,IN FRONT OF WATER TANK",12.873897,77.399495
"CK Thandya Cross,C.K.THANDYA,BESIDE OPEN AREA",12.876156,77.40114
"Gopalnagara,GOPALANAGARA,IN FRONT OF RESIDENTIAL AREA",12.876968,77.416559
"Sheshagiri Halli Mysore Road,SHESHAGIRI PURA,OPPOSITE OF WATER TANK",12.880877,77.418001
"Hagalahalli,HAGALAHALLI,IN FRONT OF HANUMANTHARAYA SWAMY TEMPLE",12.84899,77.330285
"Lingegowdana Doddi,OPPOSITE OF GOVERNMENT SCHOOL",12.854894,77.333499
"Lingegowdana Doddi cross,BESIDE OPEN AREA",12.856599,77.333706
"Manchanabele,MANCHANA BELE,OPPOSITE OF S.L.U.TRADERS",12.867082,77.334521
"Manchanabele Colony,MANCHANA BELE,OPPOSITE OF WATER TANK",12.871569,77.339852
"Shanthinagara,BESIDE OPEN AREA",12.877313,77.346336
"Gungarahalli,GUNGARAHALLI,IN FRONT OF MARAMMA TEMPLE",12.821401,77.287822
"LAKSHMIPURA,LAKSHMIPURA,OPPOSITE OF MALLESHWARA SWAMY TEMPLE",12.831226,77.295162
"Rampura,RAMPURA,IN FRONT OF ANGANAVADI KENDRA",12.841327,77.327579
"Avarehalli,AVERAHALLI,IN FRONT OF GOVERNMENT SCHOOL",12.899274,77.336935
"Vahale Varadahalli,VARADAHALLI,IN FRONT OF WATER TANK",12.879618,77.340925
"Vahale Gate,BESIDE OPEN AREA",12.876903,77.342014
"MUKTHINAGA TEMPLE CROSS,RAMOHALLI,OPPOSITE OF ROSE NURSERY",12.907029,77.425988
"Sugganahalli,SUGGANAHALLI,OPPOSITE OF K.E.B.OFFICE, BESCOM",12.799538,77.318631
"Sugganahalli Circle,SUGGANAHALLI,IN FRONT OF R.G.DIGITAL STUDIO",12.801014,77.31459
"Bommachannahalli,BOMMACHANAHALLI,IN FRONT OF ANJANEYA TEMPLE",12.8035,77.314583
"Bommachanna Halli Temple,KATAMANA DODDI,OPPOSITE OF RESIDENTIAL AREA",12.815037,77.320176
"Katammana Doddi,KATAMANA DODDI,IN FRONT OF PUMP HOUSE",12.821053,77.322278
"Kaggalahalli,KAGGALAHALLI,IN FRONT OF MILK DAIRY",12.83034,77.324714
"Devara Siddiahana Doddi,DEVISIDDAIAHNA DODDI,OPPOSITE OF GANESHA TEMPLE",12.839244,77.327419
"Thirumalapura,THIRUMALAPURA,IN FRONT OF ANJANEYA TEMPLE",12.826746,77.31178
"Dodda Kuntanahalli,DODDA KUNTANAHALLI,IN FRONT OF GOVERNMENT PRIMARY SCHOOL",12.812171,77.449772
"Seegehalli,SEEGEHALLI,NEAR MILK DAIRY",12.818091,77.452352
"Chikka Kuntanahalli,IN FRONT OF MILK DAIRY",12.793749,77.43834
"Gaviyana Palya,HOSAPALYA COLONY,IN FRONT OF GAVIYANAPALYA MILK DAIRY",12.840926,77.470011
"Gangasandra,GANGASANDRA,NEAR GOVERNMENT PRIMARY SCHOOL",12.846248,77.470587
"Devagere Colony,DEVAGERE,IN FRONT OF FLAG MAST",12.856758,77.46527
Kaggalipura,12.800676,77.508415
"Kaggalipura Colony,KAGLIPURA,IN FRONT OF DOOR NO C-63",12.80642,77.503139
"Dinnepalya,DINNE PALYA,BESIDE BYRAVESHWARA STORE",12.811176,77.492382
"Utthari,UTTARI,OPPOSITE OF DOOR NO 35",12.818134,77.492857
"Aladamara ,THIMMEGOWDAN PALYA,BESIDE OPEN AREA",12.824346,77.489935
"Banjara Palya,BANJARPALYA,IN FRONT OF DOOR NO 11",12.830404,77.485615
"Byrasandra,BYRASANDRA,IN FRONT OF DOOR NO 16",12.834886,77.485396
Agara,12.842914,77.486244
"Hosapallya,GANGASANDRA,IN FRONT OF LAKSHMI PROVISION STORE",12.842156,77.483875
"Byrohalli,OLD BYROHALLI,IN FRONT OF GOVERNMENT PRIMARY SCHOOL",12.923587,77.449161
"Mayasandra,MAYASANDRA,OPPOSITE OF ARALIMARA",12.876754,77.377536
"Dodderi Grama,DODDERI VILLAGE,IN FRONT OF RESIDENTIAL AREA",12.866407,77.376656
"Dodderei Colony,IN FRONT OF GOVERNMENT SCHOOL & COLLEGE",12.86736,77.384261
"CK Thandya Cross,BESIDE OPEN AREA",12.865438,77.392275
"Karenahalli Cross,BESIDE OPEN AREA",12.862163,77.394991
"Muthurayana Pura,OPPOSITE OF MUTHURAYA SWAMY TEMPLE",12.859434,77.401303
"Hejjala,HEJJALA,IN FRONT OF CANARA BANK",12.856029,77.417003
"Avaragere,AVARAGERE,IN FRONT OF ANGANAVADI",12.820165,77.380791
"Vajarahalli Cross,AVARAGERE,BESIDE OPEN AREA",12.825135,77.382105
"Bannikuppe,BANNIKUPPE,IN FRONT OF BASAVANNA TEMPLE",12.846967,77.383833
"Kurubara Karenahalli,BANNIKUPPE,IN FRONT OF HANUMANTHARAYA TEMPLE",12.854635,77.384001
"Bethimgere,BETHAMGERE,IN FRONT OF GOVERNMENT PRIMARY SCHOOL",12.8569,77.364841
"MPalya,BETHAMGERE,BESIDE RESIDENTIAL AREA",12.861171,77.362358
"Mallata Halli,MALLATHAHALLI,BESIDE RESIDENTIAL AREA",12.867277,77.361531
"Ganakkal,OPPOSITE OF ANJANEYA TEMPLE",12.852228,77.35724
"Ankana Halli,OPPOSITE OF KIRAN PROVISION STORE",12.856575,77.357392
"Kempa Dyapanahalli,KENDAPPANAHALLI,BESIDE RESIDENTIAL AREA",12.866955,77.354284
"Bande,MALLATHAHALLI,OPPOSITE OF PADMAVATHI STORE",12.866822,77.359181
"Kakaramana Halli,OPPOSITE OF BASAVANNA TEMPLE",12.830129,77.363095
"Borehalli,IN FRONT OF WATER TANK",12.843641,77.358063
"Guddadahalli Dinne,IN FRONT OF RESIDENTIAL AREA",12.833618,77.344217
"Guddada Halli Dinne Cross,NEAR KERE",12.831899,77.360869
"Sulikere,SULIKERE,IN FRONT OF VISHWESHWARA SWAMI HIGH SCHOOL",12.938661,77.447872
"Bande Maramma Bus Station,NAGARABHAVI 2ND STAGE,BESIDE BMTC MAIN STAND",12.966831,77.516058
Malagala Park,12.96929,77.51471
"Bridge Nagarabavi,SHAKTHI GARDEN, KALYANA NAGARA,IN FRONT OF MAHALAKSHMI DENTAL CLINIC",12.969179,77.517931
"Kalyananagara,Moodalapalya,New Baldwin Public School",12.967769,77.523879
"Moodalapalya Circle,Moodalapalya Circle,IN FRONT OF VINAYAKA CLOTH STORE",12.970691,77.524868
"Priyadarshini Layout Mudlapalya,PRIYADARSHINI LAYOUT,IN FRONT OF AUJAN GLASS & PLYWOODS",12.971292,77.526713
"Saraswathi Nagara Vijayanagara Bank Colony,POOJAPPA LAYOUT,NEAR BY VISHVESHWARAYA CREDIT CO-OPERATIVE BANK",12.973864,77.530372
"Panchsheela Nagara,PANCHASHEELA NAGARA,BESIDE MANJUNATHA UPAHARA AND MOWNESHWARA WOOD & FURNITURES",12.9744,77.52083
"Srinivas Nagara,SRINIVASANAGARA,BESIDE MANNAPURAM GOLD LOAN, NAKSHATHRA BAR & RESTAURANT",12.976538,77.52354
"patteghar circle,PATTEGARAPALYA,IN FRONT OF S.H.K.KALYANA MANTAPA",12.976368,77.525978
"Prashanthanagar,PRASHANTHA NAGARA,OPPOSITE OF A.S.C.DEGREE COLLEGE",12.976251,77.531005
"Jayanagara 9th Block,LAST BUS STOP",12.91722,77.58934
ITI Layout,12.95116,77.52182
Nagarabhavi 1st Stage 3rd Block,12.952486,77.520324
"Ambedkar College Circle,80FEET OUTER RING ROAD,BESIDE AMBEDKAR COLLEGE",12.960445,77.504976
"NGEF Layout Nagarabhavi,NGEF LAYOUT,OPPOSITE OF TEJASWINI PHARMA",12.961151,77.509744
"Nagarabhavi 12th Block,NAGARABHAVI,OPPOSITE OF BHARATHIYA STATE BANK",12.960992,77.51222
"Nagarabhavi Circle,CHANDRA LAYOUT,BESIDE OPEN AREA, NEAR SRI BALAJI SENATE",12.959622,77.520375
Amma Ashrama,12.9461,77.48664
"Bangalore Children Hospital,KANDASWAMY LAYOUT, RAJESHWARI NAGARA,IN FRONT OF SRI VINAYAKA ENTERPRISES",12.90986,77.513547
"Machohalli,MACHOHALLI,IN FRONT OF ARALI KATTE",13.006075,77.452956
"Machohalli Colony,MACHOHALLI,BESIDE RESIDENTIAL AREA",12.996978,77.451779
Machohalli Cross,12.990937,77.454489
Forest Gate,12.991735,77.458981
Chikkagollarahatti,12.991455,77.46577
Gollarahatti,12.988276,77.473524
College Stop Gollarahatti,12.986112,77.478192
"Kachohalli,KACHOHALLI,BESIDE ASHWATHA KHATTE",13.000161,77.470727
Kachohalli Cross,12.990442,77.468997
"Bylakonenahalli,BYLAKONDANAHALLI,IN FRONT OF WATER TANK",13.010958,77.459919
"Chikkamaskal,OPPOSITE OF GOVERNMENT SCHOOL",12.920058,77.330118
"Bairegowdana Palya Cross,IN FRONT OF WATER TANK",12.918893,77.323676
"Gowdana palya,IN FRONT OF ARALIMARA",12.927222,77.318491
"Adikamaranahalli,IN FRONT OF MARAMMADEVI TEMPLE ARCH",12.947366,77.309621
"Shanubhogana Halli,THIPPAGONDANAHALLI,OPPOSITE OF GOVERNMENT PRIMARY SCHOOL",12.961587,77.325034
"Thippagondanahalli Quarters,THIPPAGONDANAHALLI,OPPOSITE OF MARUTHI TAILORS",12.952803,77.335727
"TGHalli TB Gate,THIPPAGONDANAHALLI,IN FRONT OF T.B.GATE",12.962481,77.343009
"Gangappana halli,IN FRONT OF MILK DAIRY",12.958183,77.351785
"Cholanayakanahalli,CHOLANAYAKANA HALLI,IN FRONT OF MARAMMA TEMPLE",12.960431,77.359498
"Marenahalli,MARENAHALLI,BESIDE RESIDENTIAL AREA",12.973206,77.361446
"Devamachohalli,DEVAMACHANAHALLI,OPPOSITE OF ANJANEYA TEMPLE",12.966645,77.37944
"Tavare Kere Magadi Road,TAVAREKERE,IN FRONT OF MARUTHI MEDICALS",12.965849,77.400043
"Ganesha Temple Tavarekere,TAVAREKERE,IN FRONT OF GANAPATHI TEMPLE",12.967086,77.403183
"Sub Register Office,LAKKUPPE,IN FRONT OF LAKSHMI VENKATAESHWARA PROVISION STORE",12.970043,77.409946
"Channadasi Palya,CHANNENADASI PALYA,BESIDE OPEN AREA",12.97089,77.414727
"Honnagana Hatti,HONNAGANA HATTI,IN FRONT OF BYLANAJANEYA ENTERPRISES",12.974304,77.421191
Channenahalli,12.97804,77.430649
"Hamsa Farm,HAMSA FARM,BESIDE OPEN AREA",12.981782,77.439622
"Sigehalli Gate,SIGEHALLI,IN FRONT OF NANJUNDESHWARA STORE",12.984204,77.443973
Kadabagere Cross,12.989048,77.449311
"Biskur,IN FRONT OF VETERINARY HOSPITAL",13.08719,77.141863
"Sanjeevana Palya,BESIDE OPEN AREA",13.08313,77.150035
"MARURU,IN FRONT OF SOWMYA SHREE PROVISION STORE",13.056998,77.1595
"Shivanasandra,IN FRONT OF ASHWATHA KATTE",13.023596,77.164049
"Kaleri,OPPOSITE OF GOVERNMENT SCHOOL",13.008874,77.168234
"Kalya Gate,MAGADI,IN FRONT OF GANESHA TEMPLE",12.957953,77.221382
"Magadi,MAGADI,OPPOSITE OF TATA PRERANA MOTORS",12.952126,77.227505
"Maralagondalu,MARALAGONDALA,IN FRONT OF MUTURAYASWAMY TEMPLE",12.947514,77.271235
"Varadenhalli Hand Post,OPPOSITE OF GANGADHARESHWARA TRADERS",12.954979,77.31269
Magadi,12.9555,77.227228
Govt First Grade College,12.9604,77.23097
BELAGUMBA,12.994906,77.246423
CHALUVAIAHANPALYA,12.992185,77.264637
Gollarapalya,12.975269,77.279334
Thagachuguppe,12.959964,77.29027
Shanubhogana Halli,12.961272,77.324791
Helige Halli Colony,12.876179,77.206741
Heligehalli Gollarahatti,12.880314,77.19202
"Kenchanapura,KENCHANAPURA,IN FRONT OF ABAYA ANJANEYA TEMPLE",12.954011,77.450685
"Kannalli,KANNALLI,BESIDE RESIDENTIAL AREA",12.966307,77.458945
"Yale Kodigehalli,ELE KODIGE HALLI,IN FRONT OF M.V.ENTERPISES",12.977321,77.464048
"Yale Kodigehalli Colony,KODIGEHALLI,IN FRONT OF SRIDEVI CONDIMENTS",12.980799,77.466773
Gnanashakti Nagar,12.985245,77.458568
Ashraya Badavane,12.98861,77.47259
Bharathnagar 2nd Stage,12.97864,77.47786
Bharath Nagara 1st Phase,12.98237,77.48021
Anjananagar Gollarahatti,12.986318,77.488667
Herohalli Cross,12.987689,77.493543
Sunkadakatte,12.990278,77.503917
Laxmaiah Badavane,12.980806,77.464387
Laxmaiah Badavane Cross,12.989998,77.469636
"Seegehalli,SIGEHALLI,IN FRONT OF SAMUDAYA BHAVANA",12.972738,77.449209
"Kenchanapura,KENCHANAPURA,IN FRONT OF LAKSHMI PROVISION STORE",12.957385,77.450085
"Savanadurga,BEHIND LAKSHMINARASIMHA SWAMY TEMPLE",12.915593,77.297442
"Nayakanapalya,IN FRONT OF PUMP HOUSE",12.903763,77.281209
"Guddadahalli,BESIDE OPEN AREA",12.915293,77.268516
"Gavi Nagamangala Cross,IN FRONT OF BASAVESHWARA TEMPLE ARCH",12.936098,77.24333
"Magadi,IN FRONT OF PUSHPAGIRI BAKERY & SWEETS",12.951248,77.237382
Bramha Devara Gudda,12.9748,77.47533
Madeshwara Nagara,12.99218,77.4943
"Annapoorneshwari Nagara,ANNAPOORNESHWARI NAGARA,NEAR ANNAPOORNESHWARI BAKERY",12.980559,77.506866
"Kebbala,SUNKADA KATTE,IN FRONT OF RENUKA BAR & RESTAURANT",12.987446,77.504416
"Cholanayakanahalli,CHOLANAYAKANA HALLI,IN FRONT OF PRIMARY SCHOOL",12.960416,77.35959
"Yelachaguppe,YELACHAGUPPE,IN FRONT OF ANJANEYA TEMPLE",12.958951,77.421258
"Doddamarana Halli,IN FRONT OF MARAMMA TEMPLE",12.930546,77.382818
"Jodi Aladamara,NEAR JODI ALADAMARA",12.940036,77.377766
"Puradapalya,IN FRONT OF ALADAMARA",12.947106,77.381158
"Peddanapalya School,TAVAREKERE,OPPOSITE OF GOVERNMENT SCHOOL",12.959651,77.389325
"Bychakuppe Gate,TAVAREKERE,IN FRONT OF WATER TANK",12.967684,77.388597
"Ganakkal,TAVAREKERE,IN FRONT OF GOVERNMENT PRIMARY SCHOOL",12.957369,77.382199
"Karekal Palya,BESIDE OPEN AREA",12.93399,77.381482
"Ramohalli,RAMOHALLI,IN FRONT OF WATER TANK",12.907323,77.417983
"Maragondanahalli Cross,MARAGONDANAHALLI,IN FRONT OF ASHWATHA KATTE",12.922127,77.416875
"Muddayyanapalya,OPPOSITE OF GOVT. SCHOOL",12.931957,77.41718
"Gulaganjanahalli,GULAGANJANAHALLI,IN FRONT OF MARAMMA TEMPLE",12.936863,77.418746
"Halabavi Palya,GULAGANJANAHALLI,IN FRONT OF GOVT. SCHOOL",12.942015,77.415706
"Eshwara Temple,OPPOSITE OF ESHWARA TEMPLE",12.953455,77.411652
"Puttaiahna Palya ,OPPOSITE OF MILK DAIRY",12.95652,77.410642
"Manchenahalli,MANCHENAHALLI,BESIDE MILK DAIRY",13.034967,77.357828
"Gowdana palya,POOJAIEN PALYA,BESIDE OPEN AREA",13.029205,77.35997
"Ajeez palya,BOLAMARANAHALLI,BESIDE PROVISION STORE",13.027181,77.367037
"Sondekoppa,SONDEKOPPA,BESIDE GRAMA PANCHYATH OFFICE",13.019907,77.384248
"Mallasandra,MALLASANDRA,BESIDE SRI RUDRESHWARA PROVISION STORE",13.002758,77.394037
"Metipalya,METTI PALYA,BESIDE SOCIETY",12.994148,77.402166
"Varthuru,VARTHURU,BESIDE MARAMMA TEMPLE",12.985597,77.402066
"Jettipalya,TAVAREKERE,BESIDE OPEN AREA",12.969923,77.3994
"Gollahalli,IN FRONT OF GOVT. SCHOOL",12.893727,77.361349
"Suliwara,IN FRONT OF GOVT. SCHOOL",12.903012,77.362116
"Kurubara Palya,OPPOSITE OF WATER TANK",12.91147,77.362706
"Kurubarapalya Cross,CHANDRAPPA CIRCLE,OPPOSITE OF WATER TANK",12.914125,77.367346
"Giddenahalli,GIDDENA HALLI,IN FRONT OF ARALI KATTE",12.992586,77.418069
"Maimanapalya,MAHIMANNANA PALYA,IN FRONT OF ANJANEYA TEMPLE",12.985744,77.427334
"Huluvenahalli,IN FRONT OF MILK DAIRY",12.919498,77.365388
"Huluvenahalli Gate,BESIDE OPEN AREA",12.920026,77.368565
"Kudu Siddanapalya,IN FRONT OF GOVERNMENT PRIMARY SCHOOL",12.932562,77.371633
"Gangena Halli,GANGENAHALLI,BESIDE SRI MARAMMA DEVI PRASANNA TEMPLE",12.983344,77.392886
Gangenahalli Cross,12.97263,77.40012
"Jogerahalli,JOGERAHALLI,IN FRONT OF KAALA BYRAVA TEMPLE",12.985508,77.374244
"Jogerahalli Cross,JOGERAHALLI,BESIDE OPEN AREA",12.974623,77.37389
Karikallu,12.974212,77.373977
Devamachohalli,12.966676,77.379386
Byachaguppe Gate,12.96765,77.388576
"Hunnigere,HUNIGERE,BESIDE MARAMMA TEMPLE",13.032896,77.396361
"Gerahalli,GERAHALLI,BESIDE RESIDENTIAL AREA",13.037094,77.390691
"Mantanakurchi,MANCHANKHURKI,BESIDE ANJANEYA TEMPLE",13.044025,77.384894
"Kanuvanahalli,KANUVANA HALLI,BESIDE WATER TANK",12.994878,77.364527
"Nagasandra Palya,NAGASANDRA PALYA,BESIDE MARAMMA TEMPLE",13.001473,77.377716
"Banasawadi,BANASAWADI,BESIDE ANGANWADI KENDRA",13.014734,77.365467
"Soladevana Halli,SOLADEVANAHALLI,IN FRONT OF ANJANEYA TEMPLE",13.006843,77.351199
"Lakshmipura,LAKSHMI PURA,IN FRONT OF MARAMMA TEMPLE",12.989609,77.383071
"Hosa Palya Gate,HOSAPALYA,BESIDE OPEN AREA",12.983592,77.387218
"Bychakuppe,BAYCHAGUPPE,BESIDE RESIDENTIAL AREA",12.969782,77.388576
"Annekarana Halli,ATHIMGERE,IN FRONT OF GOVERNMENT PRIMARY SCHOOL",12.869676,77.270038
"Athimagere Village,Manchanabele",12.870613,77.278888
"Athimgere Gate,ATHIMGERE,IN FRONT OF ARCH SHANIMAHATHMA TEMPLE",12.874664,77.283469
"Matha,MATHA VILLAGE,IN FRONT OF WATER TANK",12.881207,77.291671
"Matha Gate,NEAR ANJANEYA TEMPLE",12.888903,77.293668
"Dabbaguli,Dabbaguli,IN FRONT OF ANGANAVADI KENDRA",12.890788,77.322756
"Dabbaguli Cross,Dabbaguli",12.879728,77.316198
"Dodderi Grama,DODDERI VILLAGE,OPPOSITE OF GOVERNMENT SCHOOL",12.866371,77.378208
"Mayasandra,MAYASANDRA,IN FRONT OF ARALIMARA",12.876708,77.377444
"Donnenahalli,DONENAHALLI,IN FRONT OF GOVERNMENT SCHOOL",12.884411,77.375162
"Aralimarada Palya,IN FRONT OF WATER TANK",12.930401,77.364793
"Madapatna,IN FRONT OF GOVERNMENT FAIR PRICE DEPOT",12.932835,77.360756
"Hosapalya,BESIDE OPEN AREA",12.950389,77.357436
Kallur,12.945926,77.318094
TGHalli,12.952276,77.335393
T B Cross,12.962513,77.342892
Gangappana halli,12.958162,77.351799
"Andrahalli,ANDARAHALLI,BESIDE GANDHI ENTERPRISES",13.007903,77.484945
"Vidyamanyanagar,VIDHYAMANYA NAGARA,BESIDE S.G.T.MOTORS",13.004662,77.487416
"Herohalli,HEROHALLI,BESIDE SRI MUTTAPPAN BAKERY",12.991506,77.487523
Upkar Badavane,12.96038,77.48346
Muddana Palya,12.966375,77.487767
"Gidadakonenahalli,Muddanapalya",12.974596,77.487792
East West College Cross,12.985528,77.486296
Bhavani Nagara 2nd Stage,12.95583,77.48695
"Sripathi Halli,IN FRONT OF PRIMARY SCHOOL",12.962614,77.167878
Nagarabhavi 9th Block,12.96868,77.51026
D Group Employees Layout,12.978245,77.498576
Eerannapalya Sunkadakatte,12.975567,77.497678
"D Group Employees Layout Cross,Annapoorneshwari Nagara,Image Granites",12.969993,77.49656
ITI Layout Mallathalli,12.968819,77.500034
"Ravuthanahalli,RAVUTHANAHALLI,BESIDE LAKSHMIDEVI TEMPLE",13.026635,77.42383
"Chamundi Nagara Magadi Road,SHANTHI NAGARA,BESIDE OPEN AREA",13.019914,77.421937
"Devananjayyana Palya,CHAMUNDI NAGARA,BESIDE OPEN AREA",13.014597,77.420426
"Kittanahalli,KITTANAHALLI CROSS,BESIDE OPEN AREA",13.009226,77.421586
"Betta Halli Gate,BETTAHALLI CROSS,BESIDE GANESHA TEMPLE",13.008197,77.434856
"Byandana Halli,BYANDHALLI,BESIDE GOVERNMENT PRIMARY SCHOOL",13.005985,77.44228
"Byandana Halli Colony,BYANDHALLI COLONY,BESIDE RESIDENTIAL AREA",13.003304,77.442383
Janapriya Town Ship,12.999096,77.442805
Mutturayaswamy Temple Magadi Road,12.991984,77.442659
Kadabagere Gate,12.989075,77.449564
"Kadabagere ,KADABAGERE,IN FRONT OF ANJANEYA TEMPLE",12.996921,77.433109
"Bettenahalli ,BETTAHALLI,BESIDE ANJANEYA TEMPLE",13.016946,77.437168
"Vaddarahalli BMTC Training Centre,VADDARAHALLI,BESIDE OPEN AREA",13.019885,77.44844
"Junction of Vaddarahalli,VADDARAHALLI,BESIDE RESIDENTIAL AREA",13.014847,77.447047
"Vaddarahalli,VADDARAHALLI,BESIDE RAMYA PROVISION STORES",13.014647,77.449536
"Jn of Vaddarahalli,BETTAHALLI COLONY,BESIDE LAKSHMI VENKATESHWARA PROVISION STORE",13.015423,77.44314
"Avarehalli,AVERAHALLI,BESIDE SRI ANJANEYA SWAMY TEMPLE",13.034908,77.416012
"Averehalli Cross,AVERAHALLI CROSS,BESIDE OPEN AREA",13.033374,77.42188
"Ravuthanahalli,RAVUTHANAHALLI,BESIDE SRI BASAVESHWARA TEMPLE",13.026687,77.423926
"Kittanahalli,KITTANAHALLI,BESIDE PLAYGROUND",13.008732,77.428222
"Baleveerana Halli,BALEVEERANA HALLI,BESIDE GOVT. PRIMARY SCHOOL",13.018526,77.393921
"Kammasandra,KAMMASANDRA,BESIDE ASHWATHA KHATTE",13.034337,77.439426
"Kammasandra Colony,Kammasandra ,Near Lakshmi Temple",13.029914,77.439022
Kamadhenu Kshethra,13.025678,77.447634
"Ganesha Circle,Kammasandra,Near Sri Raghavendra Swamy Temple (Brundavana)",13.025697,77.454627
"Madanayakanahalli,MADANAYAKANAHALLI,BESIDE USHA BAKERY AND SWEETS",13.060624,77.461264
"Siddana Hosahalli,SIDDANNAHOSAHALLI,BESIDE ASHWATHA KHATTE",13.057189,77.460274
"Dombarahalli,DOMBARAHALLI,BESIDE ASHWATHA KHATTE",13.049356,77.45991
Rajeshwari Nagara,13.045306,77.461321
"Laxmipura,LAKSHMIPURA,BESIDE OPEN AREA",13.037773,77.461245
"Kadirenahalli Village,KADIRENAHALLI,BESIDE RESIDENTIAL AREA",13.041768,77.448242
Annapoorneshwari Nagara,12.98073,77.50679
"KG Lakkenahalli,K.G.LAKKENAHALLI,BESIDE ASHWATHA KHATTE",13.016052,77.456492
"Jyothinagar,JYOTHI NAGARA,BESIDE RESIDENTIAL AREA",13.023706,77.458932
"Kammasandra,K.G.LAKKENAHALLI CROSS,BESIDE RAVAPACK INDUSTRIES",13.025748,77.459433
"Gangondanahalli Cross,LAKSHMIPURA CROSS,BESIDE OPEN AREA",13.029069,77.46461
"Gangondanahalli,GANGONDANAHALLI,BESIDE ASHWATHA KHATTE",13.021677,77.467641
"Gangondanahalli Colony,GANGONDANAHALLI COLONY,BESIDE RESIDENTIAL AREA",13.024398,77.470934
"Shanthinagara,SHANTHI NAGARA,BESIDE ASHWATHA KHATTE",13.026255,77.4731
"Thippenahalli Cross,TIPPENAHALLI CROSS,BESIDE WATER TANK",13.029472,77.483724
"Indiranagar Tumkur Road,INDIRA NAGARA,BESIDE SNEHA CERAMICS",13.027715,77.493765
"Gruhalaxmi layout,GRUHALAKSHMI LAYOUT,BESIDE GANAPATHI TRADERS",13.029083,77.497871
"Nelagedaranahalli,NELAGADARAHALLI,BESIDE SANTOSH ELECTRICALS",13.031551,77.503455
"Om timber,H.M.T.LAYOUT CROSS,BESIDE OPEN AREA",13.033735,77.504086
"Nagasandra Cross,NAGASANDRA CROSS,BESIDE ANNAPOORNESHWARI TRADERS",13.038584,77.504465
"Rukmini nagara,RUKMINI NAGARA,BESIDE KANVA BAZAAR",13.040899,77.504771
"8th Mile T Dasarahalli,8TH MILE,BESIDE PETROL BUNK",13.045551,77.505438
Magadi Road TollGate,12.973678,77.549978
"Krishnarajendra Market,KR MARKET,OPPOSITE TO JAMMA MASJID",12.963764,77.57917
"Ghanigara Halli,GANIGARAHALLI,BESIDE ANGANAWADI KENDRA",13.089076,77.510265
"Chikka Banawara Sante Beedi,CHIKKA BANAVARA,BESIDE SUMUKHA SWEETS & JUICE",13.080349,77.502446
"Chikkabanawara Railway Gate,CHIKKA BANAVARA,BESIDE RAILWAY STATION",13.075459,77.504739
"Janapriya Apartments,JANAPRIYA APARTMENTS,BESIDE S.K.MEDICALS & GENERAL STORE",13.07326,77.503134
